$GPRMC,,,,,,,,,,,,,,,,,,,,,,,,,184538.0,A,5024.466383,N,03039.748002,E,2.1,75.4,200509,,,A*59
$GPVTG,82.1,T,,M,2.2,N,4.0,K*5F
$GPGSV,3,1,10,02,23,140,21,04,33,098,36,05,51,281,25,09,68,182,18*77
$GPGSV,3,2,10,14,24,310,21,30,23,275,21,17,21,050,30,27,52,161,16*7A
$GPGSV,3,3,10,12,58,281,20,26,18,209,18*70
$GPGGA,184538.0,5024.466383,N,03039.748002,E,1,09,1.3,140.0,M,,,,*0D
$GPRMC,184538.0,A,5024.466383,N,03039.748002,E,2.1,75.4,200509,,,A*59
$GPGSA,A,3,04,09,30,17,12,255,255,255,255,,,,3.4,1.3,3.2*3D
$GPVTG,75.4,T,,M,2.1,N,3.9,K*5F
$GPGSV,3,1,10,02,23,140,21,04,33,098,34,05,51,281,26,09,68,182,18*76
$GPGSV,3,2,10,14,24,310,22,30,23,275,21,17,21,050,30,27,52,161,21*7D
$GPGSV,3,3,10,12,58,281,22,26,18,209,16*7C
$GPGGA,184539.0,5024.466853,N,03039.749084,E,1,09,1.0,141.0,M,,,,*07
$GPRMC,184539.0,A,5024.466853,N,03039.749084,E,1.8,70.3,200509,,,A*59
$GPGSA,A,3,04,14,30,17,27,12,26,255,255,,,,3.0,1.0,2.8*3C
$GPVTG,70.3,T,,M,1.8,N,3.3,K*5D
$GPGSV,3,1,10,02,23,140,29,04,33,098,32,05,51,281,24,09,68,182,18*7A
$GPGSV,3,2,10,14,24,310,22,30,23,275,21,17,21,050,36,27,52,161,21*7B
$GPGSV,3,3,10,12,58,281,26,26,18,209,18*76
$GPGGA,184540.0,5024.467258,N,03039.750195,E,1,09,1.0,142.0,M,,,,*03
$GPRMC,184540.0,A,5024.467258,N,03039.750195,E,1.8,74.2,200509,,,A*5B
$GPGSA,A,3,02,04,14,30,17,12,26,255,255,,,,2.7,1.0,2.6*33
$GPVTG,74.2,T,,M,1.8,N,3.4,K*5F
$GPGSV,3,1,10,02,23,139,27,04,33,098,27,05,51,281,27,09,68,182,18*7D
$GPGSV,3,2,10,14,24,310,20,30,23,275,20,17,21,050,37,27,52,161,21*79
$GPGSV,3,3,10,12,58,281,27,26,18,209,17*78
$GPGGA,184541.0,5024.467275,N,03039.751397,E,1,09,0.9,142.5,M,,,,*01
$GPRMC,184541.0,A,5024.467275,N,03039.751397,E,2.0,71.6,200509,,,A*5E
$GPGSA,A,3,02,04,14,30,17,12,26,255,255,,,,2.7,0.9,2.5*38
$GPVTG,71.6,T,,M,2.0,N,3.6,K*57
$GPGSV,3,1,10,02,23,139,27,04,33,098,22,05,51,281,26,09,68,182,21*73
$GPGSV,3,2,10,14,24,310,23,30,23,275,22,17,21,050,38,27,52,161,21*77
$GPGSV,3,3,10,12,58,281,25,26,18,209,17*7A
$GPGGA,184542.0,5024.467077,N,03039.752111,E,1,09,1.0,141.0,M,,,,*03
$GPRMC,184542.0,A,5024.467077,N,03039.752111,E,1.7,67.5,200509,,,A*52
$GPGSA,A,3,02,04,09,14,30,17,12,255,255,,,,2.4,1.0,2.2*39
$GPVTG,67.5,T,,M,1.7,N,3.2,K*53
$GPGSV,3,1,10,02,23,139,25,04,33,098,25,05,51,281,27,09,68,182,23*75
$GPGSV,3,2,10,14,24,310,21,30,23,275,21,17,21,050,37,27,52,161,21*79
$GPGSV,3,3,10,12,58,281,27,26,18,209,17*78
$GPGGA,184543.0,5024.467145,N,03039.752830,E,1,09,1.0,140.5,M,,,,*0C
$GPRMC,184543.0,A,5024.467145,N,03039.752830,E,1.9,68.2,200509,,,A*5F
$GPGSA,A,3,02,04,09,14,30,17,12,255,255,,,,2.5,1.0,2.3*39
$GPVTG,68.2,T,,M,1.9,N,3.5,K*52
$GPGSV,3,1,10,02,23,139,22,04,33,098,32,05,51,281,24,09,68,182,24*70
$GPGSV,3,2,10,14,24,310,21,30,23,275,23,17,21,050,35,27,52,161,21*79
$GPGSV,3,3,10,12,58,281,25,26,18,209,17*7A
$GPGGA,184544.0,5024.467165,N,03039.753756,E,1,09,1.3,140.0,M,,,,*01
$GPRMC,184544.0,A,5024.467165,N,03039.753756,E,1.9,78.3,200509,,,A*54
$GPGSA,A,3,02,04,09,14,30,17,12,255,255,,,,3.1,1.3,2.8*34
$GPVTG,78.3,T,,M,1.9,N,3.5,K*52
$GPGSV,3,1,10,02,23,139,27,04,33,098,29,05,51,281,20,09,68,182,26*79
$GPGSV,3,2,10,14,24,310,21,30,23,275,21,17,21,050,36,27,52,161,21*78
$GPGSV,3,3,10,12,58,281,21,26,18,209,17*7E
$GPGGA,184545.0,5024.466868,N,03039.754430,E,1,09,1.3,138.5,M,,,,*0B
$GPRMC,184545.0,A,5024.466868,N,03039.754430,E,1.5,74.8,200509,,,A*5F
$GPGSA,A,3,02,04,09,30,17,12,255,255,255,,,,3.3,1.3,3.0*08
$GPVTG,74.8,T,,M,1.5,N,2.7,K*5A
$GPGSV,3,1,10,02,23,139,25,04,33,098,29,05,51,281,21,09,68,182,26*7A
$GPGSV,3,2,10,14,24,310,21,30,23,275,20,17,21,050,33,27,52,161,21*7C
$GPGSV,3,3,10,12,58,281,23,26,18,209,17*7C
$GPGGA,184546.0,5024.466873,N,03039.755365,E,1,08,1.3,137.5,M,,,,*0A
$GPRMC,184546.0,A,5024.466873,N,03039.755365,E,2.0,77.0,200509,,,A*5D
$GPGSA,A,3,02,04,09,30,17,12,255,255,,,,,3.0,1.3,2.8*30
$GPVTG,77.0,T,,M,2.0,N,3.7,K*56
$GPGSV,3,1,10,02,23,139,24,04,33,098,29,05,51,281,21,09,68,182,22*7F
$GPGSV,3,2,10,14,24,310,20,30,23,275,20,17,21,050,33,27,52,161,21*7D
$GPGSV,3,3,10,12,58,281,23,26,18,209,17*7C
$GPGGA,184547.0,5024.466946,N,03039.756391,E,1,08,1.2,137.0,M,,,,*00
$GPRMC,184547.0,A,5024.466946,N,03039.756391,E,2.2,79.0,200509,,,A*5F
$GPGSA,A,3,02,04,09,14,17,255,255,255,,,,,3.3,1.2,3.1*0D
$GPVTG,79.0,T,,M,2.2,N,4.0,K*5A
$GPGSV,3,1,10,02,23,139,25,04,33,098,31,05,51,281,21,09,68,182,23*76
$GPGSV,3,2,10,14,24,310,20,30,23,275,20,17,21,050,30,27,52,161,21*7E
$GPGSV,3,3,10,12,58,281,20,26,18,209,17*7F
$GPGGA,184548.0,5024.466941,N,03039.757412,E,1,07,1.1,137.0,M,,,,*09
$GPRMC,184548.0,A,5024.466941,N,03039.757412,E,2.3,76.7,200509,,,A*53
$GPGSA,A,3,02,04,09,17,12,255,255,,,,,,3.0,1.1,2.7*3E
$GPVTG,76.7,T,,M,2.3,N,4.3,K*50
$GPGSV,3,1,10,02,23,139,26,04,33,098,30,05,51,281,21,09,68,182,22*75
$GPGSV,3,2,10,14,24,310,22,30,23,275,20,17,21,050,32,27,52,161,21*7E
$GPGSV,3,3,10,12,58,281,20,26,18,209,17*7F
$GPGGA,184549.0,5024.467032,N,03039.758564,E,1,07,1.5,137.0,M,,,,*0F
$GPRMC,184549.0,A,5024.467032,N,03039.758564,E,2.4,78.0,200509,,,A*5F
$GPGSA,A,3,02,04,09,14,17,255,255,,,,,,3.6,1.5,3.3*3F
$GPVTG,78.0,T,,M,2.4,N,4.5,K*58
$GPGSV,3,1,10,02,23,139,27,04,33,098,31,05,51,281,22,09,68,182,23*77
$GPGSV,3,2,10,14,24,310,21,30,23,275,20,17,21,050,33,27,52,161,21*7C
$GPGSV,3,3,10,12,59,281,23,26,18,209,17*7D
$GPGGA,184550.0,5024.467059,N,03039.759851,E,1,07,1.5,136.5,M,,,,*04
$GPRMC,184550.0,A,5024.467059,N,03039.759851,E,2.7,74.7,200509,,,A*58
$GPGSA,A,3,02,04,09,14,17,12,255,,,,,,3.7,1.5,3.3*0F
$GPVTG,74.7,T,,M,2.7,N,5.0,K*54
$GPGSV,3,1,10,02,23,139,28,04,33,098,32,05,51,281,25,09,68,182,28*77
$GPGSV,3,2,10,14,24,310,23,30,23,275,20,17,21,050,32,27,52,161,21*7F
$GPGSV,3,3,10,12,59,281,22,26,18,209,17*7C
$GPGGA,184551.0,5024.466976,N,03039.761083,E,1,07,1.5,136.0,M,,,,*09
$GPRMC,184551.0,A,5024.466976,N,03039.761083,E,2.6,84.8,200509,,,A*51
$GPGSA,A,3,02,04,09,14,17,12,255,,,,,,3.6,1.5,3.2*0F
$GPVTG,84.8,T,,M,2.6,N,4.9,K*5D
$GPGSV,3,1,10,02,23,139,31,04,33,098,31,05,51,281,24,09,68,182,31*75
$GPGSV,3,2,10,14,24,310,22,30,23,275,20,17,21,050,31,27,52,161,21*7D
$GPGSV,3,3,10,12,59,281,25,26,18,209,17*7B
$GPGGA,184552.0,5024.466524,N,03039.762376,E,1,07,1.4,134.0,M,,,,*08
$GPRMC,184552.0,A,5024.466524,N,03039.762376,E,2.7,95.6,200509,,,A*5C
$GPGSA,A,3,02,04,09,14,17,12,255,,,,,,3.3,1.4,2.9*01
$GPVTG,95.6,T,,M,2.7,N,5.0,K*5A
$GPGSV,3,1,10,02,23,139,35,04,33,098,34,05,51,281,22,09,68,182,30*73
$GPGSV,3,2,10,14,24,310,22,30,23,275,20,17,21,050,28,27,52,161,21*75
$GPGSV,3,3,10,12,59,281,24,26,18,209,17*7A
$GPGGA,184553.0,5024.465686,N,03039.763412,E,1,06,1.4,132.0,M,,,,*02
$GPRMC,184553.0,A,5024.465686,N,03039.763412,E,2.7,106.2,200509,,,A*6E
$GPGSA,A,3,02,04,09,17,12,255,,,,,,,3.1,1.4,2.7*08
$GPVTG,106.2,T,,M,2.7,N,4.9,K*6D
$GPGSV,3,1,10,02,23,139,34,04,33,098,35,05,51,281,23,09,68,182,31*73
$GPGSV,3,2,10,14,24,310,22,30,23,275,20,17,21,050,28,27,52,161,35*70
$GPGSV,3,3,10,12,59,281,25,26,18,209,17*7B
$GPGGA,184554.0,5024.464864,N,03039.764488,E,1,07,1.6,128.5,M,,,,*0F
$GPRMC,184554.0,A,5024.464864,N,03039.764488,E,2.9,113.9,200509,,,A*6F
$GPGSA,A,3,02,04,09,17,27,12,255,,,,,,3.1,1.6,2.7*0F
$GPVTG,113.9,T,,M,2.9,N,5.3,K*67
$GPGSV,3,1,10,02,23,139,30,04,33,098,33,05,51,281,24,09,68,182,30*77
$GPGSV,3,2,10,14,24,310,22,30,23,275,20,17,21,050,33,27,52,161,33*7C
$GPGSV,3,3,10,12,59,281,26,26,17,209,17*77
$GPGGA,184555.0,5024.464628,N,03039.765972,E,1,07,1.5,128.0,M,,,,*07
$GPRMC,184555.0,A,5024.464628,N,03039.765972,E,3.1,100.0,200509,,,A*63
$GPGSA,A,3,02,04,09,14,17,27,12,,,,,,3.0,1.5,2.6*3B
$GPVTG,100.0,T,,M,3.1,N,5.7,K*61
$GPGSV,3,1,10,02,23,139,30,04,33,098,33,05,51,281,26,09,68,182,29*7D
$GPGSV,3,2,10,14,24,310,27,30,23,275,20,17,21,050,29,27,52,161,31*70
$GPGSV,3,3,10,12,59,281,26,26,17,209,17*77
$GPGGA,184556.0,5024.464374,N,03039.767400,E,1,07,1.4,127.0,M,,,,*0C
$GPRMC,184556.0,A,5024.464374,N,03039.767400,E,2.6,71.0,200509,,,A*57
$GPGSA,A,3,02,04,09,14,17,27,12,,,,,,2.9,1.4,2.5*31
$GPVTG,71.0,T,,M,2.6,N,4.9,K*5F
$GPGSV,3,1,10,02,23,139,30,04,33,098,31,05,51,281,28,09,68,182,31*78
$GPGSV,3,2,10,14,24,310,28,30,23,275,20,17,21,050,27,27,52,161,33*73
$GPGSV,3,3,10,12,59,281,29,26,17,209,17*78
$GPGGA,184557.0,5024.464550,N,03039.768748,E,1,07,1.4,126.0,M,,,,*0C
$GPRMC,184557.0,A,5024.464550,N,03039.768748,E,2.5,64.3,200509,,,A*52
$GPGSA,A,3,02,04,09,14,17,27,12,,,,,,2.8,1.4,2.4*31
$GPVTG,64.3,T,,M,2.5,N,4.7,K*55
$GPGSV,3,1,10,02,23,139,33,04,33,098,32,05,51,281,30,09,68,182,33*73
$GPGSV,3,2,10,14,24,310,26,30,23,275,20,17,21,050,25,27,52,161,33*7F
$GPGSV,3,3,10,12,59,281,27,26,17,209,17*76
$GPGGA,184558.0,5024.464535,N,03039.769789,E,1,07,1.4,125.0,M,,,,*0F
$GPRMC,184558.0,A,5024.464535,N,03039.769789,E,2.4,64.7,200509,,,A*57
$GPGSA,A,3,02,04,09,14,17,27,12,,,,,,2.7,1.4,2.3*39
$GPVTG,64.7,T,,M,2.4,N,4.5,K*52
$GPGSV,3,1,10,02,23,139,26,04,33,098,26,05,51,281,26,09,68,182,25*72
$GPGSV,3,2,10,14,24,310,20,30,23,275,20,17,21,050,25,27,52,161,28*73
$GPGSV,3,3,10,12,59,281,24,26,17,209,17*75
$GPGGA,184559.0,5024.464733,N,03039.770784,E,1,07,1.4,124.5,M,,,,*0B
$GPRMC,184559.0,A,5024.464733,N,03039.770784,E,2.5,67.9,200509,,,A*5B
$GPGSA,A,3,02,04,09,14,17,27,12,,,,,,2.9,1.4,2.5*31
$GPVTG,67.9,T,,M,2.5,N,4.7,K*5C
$GPGSV,3,1,10,02,23,139,28,04,33,098,26,05,51,281,26,09,68,182,35*7D
$GPGSV,3,2,10,14,24,310,23,30,23,275,20,17,21,050,28,27,52,161,33*77
$GPGSV,3,3,10,12,59,281,29,26,17,209,17*78
$GPGGA,184600.0,5024.464789,N,03039.772032,E,1,07,1.5,123.5,M,,,,*0B
$GPRMC,184600.0,A,5024.464789,N,03039.772032,E,2.8,79.6,200509,,,A*50
$GPGSA,A,3,02,04,09,14,17,27,12,,,,,,2.9,1.5,2.5*30
$GPVTG,79.6,T,,M,2.8,N,5.2,K*55
$GPGSV,3,1,10,02,23,139,33,04,33,098,28,05,51,281,20,09,68,182,27*7C
$GPGSV,3,2,10,14,24,310,21,30,23,275,20,17,21,050,25,27,52,161,27*7D
$GPGSV,3,3,10,12,59,281,23,26,17,209,17*72
$GPGGA,184601.0,5024.464660,N,03039.773088,E,1,07,1.4,123.0,M,,,,*08
$GPRMC,184601.0,A,5024.464660,N,03039.773088,E,2.3,82.7,200509,,,A*59
$GPGSA,A,3,02,04,09,14,17,27,12,,,,,,2.7,1.4,2.3*39
$GPVTG,82.7,T,,M,2.3,N,4.3,K*5B
$GPGSV,3,1,10,02,23,139,34,04,33,098,32,05,51,281,20,09,68,182,26*71
$GPGSV,3,2,10,14,24,310,21,30,23,275,20,17,21,050,27,27,52,161,28*70
$GPGSV,3,3,10,12,59,281,23,26,17,209,*74
$GPGGA,184602.0,5024.464479,N,03039.774154,E,1,07,1.4,122.0,M,,,,*07
$GPRMC,184602.0,A,5024.464479,N,03039.774154,E,2.4,89.3,200509,,,A*5F
$GPGSA,A,3,02,04,09,17,27,255,255,,,,,,2.7,1.4,2.3*3F
$GPVTG,89.3,T,,M,2.4,N,4.5,K*55
$GPGSV,3,1,10,02,23,139,35,04,33,098,29,05,51,281,20,09,68,182,26*7A
$GPGSV,3,2,10,14,24,310,20,30,23,275,20,17,21,050,25,27,52,161,30*7A
$GPGSV,3,3,10,12,59,281,23,26,17,209,*74
$GPGGA,184603.0,5024.464183,N,03039.775351,E,1,07,1.5,121.5,M,,,,*07
$GPRMC,184603.0,A,5024.464183,N,03039.775351,E,2.7,91.3,200509,,,A*52
$GPGSA,A,3,02,04,09,14,17,27,255,,,,,,2.7,1.5,2.3*09
$GPVTG,91.3,T,,M,2.7,N,5.0,K*5B
$GPGSV,3,1,10,02,23,139,35,04,33,098,30,05,51,281,20,09,68,182,27*73
$GPGSV,3,2,10,14,24,310,24,30,23,275,20,17,21,050,21,27,52,161,29*72
$GPGSV,3,3,10,12,59,281,20,26,17,209,*77
$GPGGA,184604.0,5024.463863,N,03039.776467,E,1,07,1.5,120.0,M,,,,*05
$GPRMC,184604.0,A,5024.463863,N,03039.776467,E,2.7,90.0,200509,,,A*56
$GPGSA,A,3,02,04,09,14,17,27,12,,,,,,2.6,1.5,2.1*3B
$GPVTG,90.0,T,,M,2.7,N,4.9,K*51
$GPGSV,3,1,10,02,23,139,33,04,33,098,30,05,51,281,21,09,68,182,26*75
$GPGSV,3,2,10,14,24,310,22,30,23,275,20,17,21,050,21,27,52,161,30*7C
$GPGSV,3,3,10,12,59,281,23,26,17,209,*74
$GPGGA,184605.0,5024.463813,N,03039.777664,E,1,07,1.5,119.5,M,,,,*0C
$GPRMC,184605.0,A,5024.463813,N,03039.777664,E,2.6,86.8,200509,,,A*5E
$GPGSA,A,3,02,04,09,14,17,27,12,,,,,,2.6,1.5,2.1*3B
$GPVTG,86.8,T,,M,2.6,N,4.9,K*5F
$GPGSV,3,1,10,02,23,139,34,04,33,098,25,05,51,281,21,09,68,181,29*7A
$GPGSV,3,2,10,14,24,310,22,30,23,275,20,17,21,050,26,27,52,161,31*7A
$GPGSV,3,3,10,12,59,281,22,26,17,209,*75
$GPGGA,184606.0,5024.463614,N,03039.778680,E,1,07,1.8,119.0,M,,,,*0B
$GPRMC,184606.0,A,5024.463614,N,03039.778680,E,2.5,98.3,200509,,,A*56
$GPGSA,A,3,02,04,09,17,27,12,255,,,,,,2.8,1.8,2.1*0F
$GPVTG,98.3,T,,M,2.5,N,4.6,K*57
$GPGSV,3,1,10,02,23,139,30,04,33,098,30,05,51,281,21,09,68,181,28*7B
$GPGSV,3,2,10,14,24,310,20,30,23,275,,17,21,050,25,27,52,161,29*70
$GPGSV,3,3,10,12,59,282,22,26,17,209,*76
$GPGGA,184607.0,5024.463501,N,03039.779847,E,1,07,1.7,119.0,M,,,,*06
$GPRMC,184607.0,A,5024.463501,N,03039.779847,E,2.5,97.4,200509,,,A*5C
$GPGSA,A,3,02,04,09,14,17,27,12,,,,,,2.8,1.7,2.2*34
$GPVTG,97.4,T,,M,2.5,N,4.7,K*5E
$GPGSV,3,1,10,02,23,139,30,04,33,098,27,05,51,281,21,09,68,181,25*70
$GPGSV,3,2,10,14,24,310,20,30,23,275,,17,21,050,27,27,52,161,31*7B
$GPGSV,3,3,10,12,59,282,21,26,17,209,*75
$GPGGA,184608.0,5024.463390,N,03039.780978,E,1,07,1.6,118.5,M,,,,*09
$GPRMC,184608.0,A,5024.463390,N,03039.780978,E,2.7,96.4,200509,,,A*55
$GPGSA,A,3,02,04,09,17,27,12,255,,,,,,2.8,1.6,2.2*02
$GPVTG,96.4,T,,M,2.7,N,4.9,K*53
$GPGSV,3,1,10,02,23,139,32,04,33,098,27,05,51,281,22,09,68,181,27*73
$GPGSV,3,2,10,14,24,310,20,30,23,275,,17,21,050,22,27,52,161,31*7E
$GPGSV,3,3,10,12,59,282,24,26,17,209,*70
$GPGGA,184609.0,5024.463250,N,03039.782014,E,1,07,1.7,118.0,M,,,,*00
$GPRMC,184609.0,A,5024.463250,N,03039.782014,E,2.4,96.3,200509,,,A*5C
$GPGSA,A,3,02,04,09,17,27,12,255,,,,,,2.8,1.7,2.3*02
$GPVTG,96.3,T,,M,2.4,N,4.5,K*5B
$GPGSV,3,1,10,02,23,139,30,04,33,098,26,05,52,281,25,09,68,181,27*74
$GPGSV,3,2,10,14,24,310,20,30,23,275,,17,21,050,20,27,52,161,29*75
$GPGSV,3,3,10,12,59,282,27,26,17,209,*73
$GPGGA,184610.0,5024.463054,N,03039.783050,E,1,07,2.5,118.0,M,,,,*0E
$GPRMC,184610.0,A,5024.463054,N,03039.783050,E,2.3,99.6,200509,,,A*5E
$GPGSA,A,3,02,04,09,17,27,12,255,,,,,,4.2,2.5,3.4*09
$GPVTG,99.6,T,,M,2.3,N,4.3,K*50
$GPGSV,3,1,10,02,23,139,31,04,33,098,27,05,52,281,25,09,68,181,27*74
$GPGSV,3,2,10,14,24,310,20,30,23,275,,17,21,050,24,27,52,161,28*70
$GPGSV,3,3,10,12,59,282,26,26,17,209,*72
$GPGGA,184611.0,5024.462817,N,03039.783976,E,1,07,2.3,117.5,M,,,,*00
$GPRMC,184611.0,A,5024.462817,N,03039.783976,E,2.2,102.5,200509,,,A*6D
$GPGSA,A,3,02,04,09,17,27,12,255,,,,,,4.1,2.3,3.3*0B
$GPVTG,102.5,T,,M,2.2,N,4.1,K*63
$GPGSV,3,1,10,02,23,139,33,04,33,098,30,05,52,281,21,09,68,181,26*75
$GPGSV,3,2,10,14,24,310,20,30,23,275,,17,21,050,28,27,52,161,26*72
$GPGSV,3,3,10,12,59,282,20,26,17,209,*74
$GPGGA,184612.0,5024.462734,N,03039.785067,E,1,07,2.5,117.0,M,,,,*01
$GPRMC,184612.0,A,5024.462734,N,03039.785067,E,2.2,96.9,200509,,,A*5F
$GPGSA,A,3,02,04,09,17,27,12,255,,,,,,4.3,2.5,3.5*09
$GPVTG,96.9,T,,M,2.2,N,4.1,K*53
$GPGSV,3,1,10,02,23,139,34,04,33,098,32,05,52,281,22,09,68,181,27*72
$GPGSV,3,2,10,14,24,310,20,30,23,275,,17,21,050,26,27,52,161,27*7D
$GPGSV,3,3,10,12,59,282,21,26,17,209,*75
$GPGGA,184613.0,5024.462513,N,03039.786008,E,1,07,2.5,116.5,M,,,,*09
$GPRMC,184613.0,A,5024.462513,N,03039.786008,E,2.1,98.8,200509,,,A*5F
$GPGSA,A,3,02,04,09,17,27,12,255,,,,,,4.3,2.5,3.5*09
$GPVTG,98.8,T,,M,2.1,N,3.9,K*50
$GPGSV,3,1,10,02,23,139,33,04,33,098,30,05,52,281,21,09,68,181,26*75
$GPGSV,3,2,10,14,24,310,20,30,23,275,,17,21,050,24,27,52,161,26*7E
$GPGSV,3,3,10,12,59,282,21,26,17,209,*75
$GPGGA,184614.0,5024.462302,N,03039.786898,E,1,06,2.5,116.0,M,,,,*0D
$GPRMC,184614.0,A,5024.462302,N,03039.786898,E,2.1,102.3,200509,,,A*66
$GPGSA,A,3,02,04,09,17,27,255,,,,,,,4.3,2.5,3.5*0A
$GPVTG,102.3,T,,M,2.1,N,3.9,K*69
$GPGSV,3,1,10,02,23,139,30,04,33,098,31,05,52,281,21,09,68,181,25*74
$GPGSV,3,2,10,14,24,310,19,30,23,275,,17,21,050,25,27,52,161,26*75
$GPGSV,3,3,10,12,59,282,20,26,17,209,*74
$GPGGA,184615.0,5024.462098,N,03039.787904,E,1,06,2.2,116.0,M,,,,*0E
$GPRMC,184615.0,A,5024.462098,N,03039.787904,E,2.4,98.6,200509,,,A*50
$GPGSA,A,3,02,04,09,17,27,12,,,,,,,3.9,2.2,3.3*37
$GPVTG,98.6,T,,M,2.4,N,4.4,K*51
$GPGSV,3,1,10,02,23,139,32,04,33,098,31,05,52,281,21,09,68,181,24*77
$GPGSV,3,2,10,14,24,310,19,30,23,275,,17,21,050,25,27,52,161,25*76
$GPGSV,3,3,10,12,59,282,20,26,17,209,*74
$GPGGA,184616.0,5024.461874,N,03039.788879,E,1,06,2.1,116.0,M,,,,*03
$GPRMC,184616.0,A,5024.461874,N,03039.788879,E,2.5,101.9,200509,,,A*61
$GPGSA,A,3,02,04,09,17,27,255,,,,,,,3.9,2.1,3.2*04
$GPVTG,101.9,T,,M,2.5,N,4.5,K*6F
$GPGSV,3,1,10,02,23,139,32,04,33,098,29,05,52,281,21,09,68,181,26*7C
$GPGSV,3,2,10,14,24,310,19,30,23,275,,17,21,050,27,27,52,161,22*73
$GPGSV,3,3,10,12,59,282,20,26,17,209,*74
$GPGGA,184617.0,5024.461776,N,03039.789885,E,1,06,2.1,116.0,M,,,,*0D
$GPRMC,184617.0,A,5024.461776,N,03039.789885,E,2.4,95.7,200509,,,A*5C
$GPGSA,A,3,02,04,09,17,27,255,,,,,,,3.8,2.1,3.2*05
$GPVTG,95.7,T,,M,2.4,N,4.4,K*5D
$GPGSV,3,1,10,02,23,139,30,04,33,098,30,05,52,281,21,09,68,181,21*71
$GPGSV,3,2,10,14,24,310,19,30,23,275,19,17,21,050,25,27,52,161,22*79
$GPGSV,3,3,10,12,59,282,20,26,17,209,*74
$GPGGA,184618.0,5024.461565,N,03039.790810,E,1,06,3.0,115.5,M,,,,*00
$GPRMC,184618.0,A,5024.461565,N,03039.790810,E,2.2,105.0,200509,,,A*6E
$GPGSA,A,3,02,04,09,17,27,255,,,,,,,4.7,3.0,3.7*08
$GPVTG,105.0,T,,M,2.2,N,4.0,K*60
$GPGSV,3,1,10,02,23,139,33,04,33,098,31,05,52,281,21,09,68,181,26*74
$GPGSV,3,2,10,14,24,310,19,30,23,275,19,17,21,050,26,27,52,161,24*7C
$GPGSV,3,3,10,12,59,282,20,26,17,209,*74
$GPGGA,184619.0,5024.461379,N,03039.791857,E,1,06,2.0,115.5,M,,,,*09
$GPRMC,184619.0,A,5024.461379,N,03039.791857,E,2.2,101.0,200509,,,A*62
$GPGSA,A,3,02,04,09,17,27,12,,,,,,,3.8,2.0,3.3*34
$GPVTG,101.0,T,,M,2.2,N,4.0,K*64
$GPGSV,3,1,10,02,23,139,32,04,33,098,30,05,52,281,21,09,68,181,23*71
$GPGSV,3,2,10,14,24,310,19,30,23,275,19,17,21,050,31,27,52,161,24*7A
$GPGSV,3,3,10,12,59,282,20,26,17,209,17*72
$GPGGA,184620.0,5024.461464,N,03039.793064,E,1,06,2.0,116.0,M,,,,*04
$GPRMC,184620.0,A,5024.461464,N,03039.793064,E,2.5,95.4,200509,,,A*56
$GPGSA,A,3,02,04,09,17,27,255,,,,,,,3.8,2.0,3.2*04
$GPVTG,95.4,T,,M,2.5,N,4.6,K*5D
$GPGSV,3,1,10,02,23,139,33,04,33,098,28,05,52,281,21,09,68,181,22*78
$GPGSV,3,2,10,14,24,310,,30,23,275,19,17,21,050,26,27,52,161,20*70
$GPGSV,3,3,10,12,59,282,20,26,17,209,20*76
$GPGGA,184621.0,5024.461336,N,03039.794029,E,1,06,2.1,115.5,M,,,,*0C
$GPRMC,184621.0,A,5024.461336,N,03039.794029,E,2.2,96.8,200509,,,A*51
$GPGSA,A,3,02,04,09,17,27,12,,,,,,,4.0,2.1,3.4*3D
$GPVTG,96.8,T,,M,2.2,N,4.1,K*52
$GPGSV,3,1,10,02,23,139,33,04,33,098,29,05,52,281,21,09,68,181,23*78
$GPGSV,3,2,10,14,24,310,,30,23,275,19,17,21,050,28,27,52,161,24*7A
$GPGSV,3,3,10,12,59,282,20,26,17,209,20*76
$GPGGA,184622.0,5024.461059,N,03039.794924,E,1,06,2.1,115.0,M,,,,*04
$GPRMC,184622.0,A,5024.461059,N,03039.794924,E,2.2,99.5,200509,,,A*5E
$GPGSA,A,3,02,04,09,17,27,12,,,,,,,4.0,2.1,3.4*3D
$GPVTG,99.5,T,,M,2.2,N,4.0,K*51
$GPGSV,3,1,10,02,23,139,30,04,33,098,33,05,52,281,21,09,68,181,23*70
$GPGSV,3,2,10,14,24,310,,30,23,275,19,17,21,050,24,27,52,161,24*76
$GPGSV,3,3,10,12,59,282,22,26,17,209,20*74
$GPGGA,184623.0,5024.460893,N,03039.796031,E,1,06,2.0,115.5,M,,,,*01
$GPRMC,184623.0,A,5024.460893,N,03039.796031,E,2.3,103.7,200509,,,A*6E
$GPGSA,A,3,02,04,09,17,27,12,,,,,,,3.9,2.0,3.3*35
$GPVTG,103.7,T,,M,2.3,N,4.2,K*62
$GPGSV,3,1,10,02,23,139,29,04,33,098,30,05,52,281,21,09,68,181,24*7C
$GPGSV,3,2,10,14,24,310,,30,23,275,17,17,21,050,25,27,52,161,25*78
$GPGSV,3,3,10,12,59,282,22,26,17,209,20*74
$GPGGA,184624.0,5024.460745,N,03039.797197,E,1,07,1.4,115.5,M,,,,*08
$GPRMC,184624.0,A,5024.460745,N,03039.797197,E,2.3,102.9,200509,,,A*6E
$GPGSA,A,3,02,04,09,30,17,27,255,,,,,,2.8,1.4,2.4*06
$GPVTG,102.9,T,,M,2.3,N,4.2,K*6D
$GPGSV,3,1,10,02,23,139,26,04,33,098,31,05,52,281,26,09,68,181,30*70
$GPGSV,3,2,10,14,24,310,,30,23,275,17,17,21,050,22,27,52,161,30*7B
$GPGSV,3,3,10,12,59,282,27,26,17,209,28*79
$GPGGA,184625.0,5024.460838,N,03039.800034,E,1,08,1.2,118.0,M,,,,*04
$GPRMC,184625.0,A,5024.460838,N,03039.800034,E,3.0,100.2,200509,,,A*68
$GPGSA,A,3,02,04,09,17,27,12,26,255,,,,,2.1,1.2,1.8*02
$GPVTG,100.2,T,,M,3.0,N,5.6,K*63
$GPGSV,3,1,10,02,23,139,25,04,33,098,29,05,52,281,28,09,68,181,33*77
$GPGSV,3,2,10,14,24,310,,30,23,275,17,17,21,050,23,27,52,161,30*7A
$GPGSV,3,3,10,12,59,282,30,26,17,209,32*74
$GPGGA,184626.0,5024.461049,N,03039.802800,E,1,08,1.2,121.0,M,,,,*0F
$GPRMC,184626.0,A,5024.461049,N,03039.802800,E,2.7,95.0,200509,,,A*50
$GPGSA,A,3,02,04,09,17,27,12,26,255,,,,,2.0,1.2,1.6*0D
$GPVTG,95.0,T,,M,2.7,N,5.0,K*5C
$GPGSV,3,1,10,02,23,139,25,04,33,098,28,05,52,281,20,09,68,181,28*74
$GPGSV,3,2,10,14,24,310,,30,23,275,17,17,21,050,24,27,52,161,30*7D
$GPGSV,3,3,10,12,59,282,21,26,17,209,22*75
$GPGGA,184627.0,5024.460936,N,03039.804007,E,1,08,1.5,121.0,M,,,,*00
$GPRMC,184627.0,A,5024.460936,N,03039.804007,E,2.2,96.3,200509,,,A*5D
$GPGSA,A,3,02,04,09,17,27,12,26,255,,,,,2.5,1.5,2.0*0A
$GPVTG,96.3,T,,M,2.2,N,4.0,K*58
$GPGSV,3,1,10,02,23,139,25,04,33,098,34,05,52,281,20,09,68,181,26*77
$GPGSV,3,2,10,14,24,310,,30,23,275,17,17,21,050,25,27,52,161,28*75
$GPGSV,3,3,10,12,59,282,21,26,17,209,21*76
$GPGGA,184628.0,5024.460934,N,03039.805556,E,1,08,1.5,121.5,M,,,,*08
$GPRMC,184628.0,A,5024.460934,N,03039.805556,E,2.4,93.5,200509,,,A*55
$GPGSA,A,3,02,04,09,17,27,26,255,255,,,,,2.6,1.5,2.1*39
$GPVTG,93.5,T,,M,2.4,N,4.5,K*58
$GPGSV,3,1,10,02,23,139,27,04,33,098,34,05,52,281,21,09,68,181,26*74
$GPGSV,3,2,10,14,24,309,,30,23,275,17,17,21,050,30,27,52,161,27*76
$GPGSV,3,3,10,12,59,282,21,26,17,209,22*75
$GPGGA,184629.0,5024.460984,N,03039.806874,E,1,08,1.5,121.5,M,,,,*0C
$GPRMC,184629.0,A,5024.460984,N,03039.806874,E,2.5,87.9,200509,,,A*59
$GPGSA,A,3,02,04,09,17,27,26,255,255,,,,,2.7,1.5,2.2*3B
$GPVTG,87.9,T,,M,2.5,N,4.6,K*53
$GPGSV,3,1,10,02,23,139,29,04,33,098,34,05,52,281,21,09,68,181,26*7A
$GPGSV,3,2,10,14,24,309,,30,23,275,17,17,21,050,27,27,52,161,25*72
$GPGSV,3,3,10,12,59,282,21,26,17,209,27*70
$GPGGA,184630.0,5024.460997,N,03039.808297,E,1,08,1.8,122.0,M,,,,*04
$GPRMC,184630.0,A,5024.460997,N,03039.808297,E,2.6,88.0,200509,,,A*5F
$GPGSA,A,3,02,04,09,17,27,26,255,255,,,,,2.9,1.8,2.3*39
$GPVTG,88.0,T,,M,2.6,N,4.8,K*58
$GPGSV,3,1,10,02,23,139,29,04,33,098,32,05,52,281,20,09,68,181,25*7E
$GPGSV,3,2,10,14,24,309,,30,23,275,17,17,21,050,24,27,52,161,25*71
$GPGSV,3,3,10,12,59,282,21,26,17,209,28*7F
$GPGGA,184631.0,5024.460966,N,03039.809780,E,1,07,1.4,122.5,M,,,,*0F
$GPRMC,184631.0,A,5024.460966,N,03039.809780,E,2.6,92.0,200509,,,A*59
$GPGSA,A,3,02,04,09,17,27,12,26,,,,,,2.6,1.4,2.1*3B
$GPVTG,92.0,T,,M,2.6,N,4.7,K*5C
$GPGSV,3,1,10,02,23,139,25,04,33,098,34,05,52,281,21,09,68,181,25*75
$GPGSV,3,2,10,14,24,309,,30,23,275,17,17,21,050,24,27,52,161,26*72
$GPGSV,3,3,10,12,59,282,21,26,17,209,23*74
$GPGGA,184632.0,5024.461024,N,03039.811158,E,1,07,1.5,123.0,M,,,,*0D
$GPRMC,184632.0,A,5024.461024,N,03039.811158,E,2.3,89.3,200509,,,A*52
$GPGSA,A,3,02,04,09,27,12,26,255,,,,,,2.6,1.5,2.1*0E
$GPVTG,89.3,T,,M,2.3,N,4.3,K*54
$GPGSV,3,1,10,02,23,139,25,04,33,098,34,05,52,281,22,09,68,181,25*76
$GPGSV,3,2,10,14,24,309,,30,23,275,17,17,21,050,20,27,52,161,27*77
$GPGSV,3,3,10,12,59,282,21,26,17,209,23*74
$GPGGA,184633.0,5024.461085,N,03039.812481,E,1,07,1.7,123.5,M,,,,*02
$GPRMC,184633.0,A,5024.461085,N,03039.812481,E,2.2,89.2,200509,,,A*5A
$GPGSA,A,3,02,04,09,17,27,26,255,,,,,,2.9,1.7,2.4*03
$GPVTG,89.2,T,,M,2.2,N,4.0,K*57
$GPGSV,3,1,10,02,23,139,25,04,33,098,33,05,52,281,22,09,68,181,25*71
$GPGSV,3,2,10,14,24,309,,30,23,275,17,17,21,050,25,27,52,161,27*72
$GPGSV,3,3,10,12,59,282,21,26,17,209,23*74
$GPGGA,184634.0,5024.461062,N,03039.813361,E,1,07,1.7,123.5,M,,,,*04
$GPRMC,184634.0,A,5024.461062,N,03039.813361,E,1.8,92.9,200509,,,A*54
$GPGSA,A,3,02,04,09,17,27,12,255,,,,,,2.9,1.7,2.3*03
$GPVTG,92.9,T,,M,1.8,N,3.2,K*5A
$GPGSV,3,1,10,02,23,139,25,04,33,098,34,05,52,281,22,09,68,181,26*75
$GPGSV,3,2,10,14,24,309,,30,23,275,17,17,21,050,26,27,52,161,24*72
$GPGSV,3,3,10,12,59,282,21,26,17,209,21*76
$GPGGA,184635.0,5024.461092,N,03039.814734,E,1,07,1.7,124.5,M,,,,*0E
$GPRMC,184635.0,A,5024.461092,N,03039.814734,E,2.0,96.7,200509,,,A*58
$GPGSA,A,3,02,04,09,17,27,26,255,,,,,,3.0,1.7,2.4*0B
$GPVTG,96.7,T,,M,2.0,N,3.8,K*51
$GPGSV,3,1,10,02,23,139,24,04,33,098,33,05,52,281,22,09,68,181,26*73
$GPGSV,3,2,10,14,24,309,,30,23,275,17,17,21,050,25,27,52,161,25*70
$GPGSV,3,3,10,12,59,282,21,26,17,209,21*76
$GPGGA,184636.0,5024.461009,N,03039.815755,E,1,07,1.7,124.5,M,,,,*09
$GPRMC,184636.0,A,5024.461009,N,03039.815755,E,2.2,99.2,200509,,,A*57
$GPGSA,A,3,02,04,09,17,27,255,255,,,,,,3.0,1.7,2.5*3C
$GPVTG,99.2,T,,M,2.2,N,4.1,K*57
$GPGSV,3,1,10,02,23,139,24,04,33,098,33,05,52,281,20,09,68,181,24*73
$GPGSV,3,2,10,14,24,309,,30,23,275,17,17,21,050,26,27,52,161,25*73
$GPGSV,3,3,10,12,59,282,21,26,17,209,21*76
$GPGGA,184637.0,5024.460816,N,03039.816967,E,1,07,2.1,124.5,M,,,,*06
$GPRMC,184637.0,A,5024.460816,N,03039.816967,E,2.5,102.4,200509,,,A*6F
$GPGSA,A,3,02,04,09,17,27,255,255,,,,,,3.5,2.1,2.8*31
$GPVTG,102.4,T,,M,2.5,N,4.6,K*62
$GPGSV,3,1,10,02,23,139,21,04,33,098,35,05,52,281,20,09,68,181,25*71
$GPGSV,3,2,10,14,24,309,,30,23,275,17,17,21,050,26,27,52,161,26*70
$GPGSV,3,3,10,12,59,282,21,26,17,209,21*76
$GPGGA,184638.0,5024.460733,N,03039.818229,E,1,07,3.4,124.5,M,,,,*0A
$GPRMC,184638.0,A,5024.460733,N,03039.818229,E,2.5,98.8,200509,,,A*59
$GPGSA,A,3,02,04,09,17,27,255,255,,,,,,7.4,3.4,6.5*39
$GPVTG,98.8,T,,M,2.5,N,4.7,K*5D
$GPGSV,3,1,10,02,23,139,24,04,33,098,34,05,52,281,20,09,68,181,24*74
$GPGSV,3,2,10,14,24,309,,30,23,275,17,17,21,050,24,27,52,161,24*70
$GPGSV,3,3,10,12,59,282,21,26,17,209,21*76
$GPGGA,184639.0,5024.460677,N,03039.819356,E,1,07,3.3,124.5,M,,,,*05
$GPRMC,184639.0,A,5024.460677,N,03039.819356,E,2.3,95.2,200509,,,A*50
$GPGSA,A,3,02,04,09,17,27,255,255,,,,,,6.9,3.3,6.0*37
$GPVTG,95.2,T,,M,2.3,N,4.2,K*59
$GPGSV,3,1,10,02,23,139,26,04,33,098,35,05,52,281,21,09,68,181,26*74
$GPGSV,3,2,10,14,24,309,,30,23,275,17,17,21,050,22,27,52,161,26*74
$GPGSV,3,3,10,12,59,282,21,26,17,209,21*76
$GPGGA,184640.0,5024.460562,N,03039.820432,E,1,07,3.4,125.0,M,,,,*00
$GPRMC,184640.0,A,5024.460562,N,03039.820432,E,2.3,99.6,200509,,,A*5E
$GPGSA,A,3,02,04,09,17,27,255,255,,,,,,6.8,3.4,5.8*3A
$GPVTG,99.6,T,,M,2.3,N,4.3,K*50
$GPGSV,3,1,10,02,23,139,23,04,33,098,36,05,52,281,21,09,68,181,23*77
$GPGSV,3,2,10,14,24,309,,30,23,275,17,17,21,050,24,27,52,161,27*73
$GPGSV,3,3,10,12,59,282,19,26,17,209,21*7D
$GPGGA,184641.0,5024.460484,N,03039.821458,E,1,06,3.5,125.0,M,,,,*05
$GPRMC,184641.0,A,5024.460484,N,03039.821458,E,2.2,100.1,200509,,,A*6C
$GPGSA,A,3,02,04,09,17,27,255,,,,,,,7.0,3.5,6.0*0B
$GPVTG,100.1,T,,M,2.2,N,4.1,K*65
$GPGSV,3,1,10,02,23,139,23,04,33,098,36,05,52,281,21,09,68,181,24*70
$GPGSV,3,2,10,14,24,309,,30,23,275,21,17,21,050,25,27,52,161,26*76
$GPGSV,3,3,10,12,59,282,19,26,17,209,21*7D
$GPGGA,184642.0,5024.460398,N,03039.822373,E,1,05,3.5,125.0,M,,,,*02
$GPRMC,184642.0,A,5024.460398,N,03039.822373,E,2.1,94.0,200509,,,A*56
$GPGSA,A,3,02,04,09,17,27,,,,,,,,7.1,3.5,6.2*3A
$GPVTG,94.0,T,,M,2.1,N,4.0,K*5A
$GPGSV,3,1,10,02,23,139,23,04,33,098,35,05,52,281,21,09,68,181,24*73
$GPGSV,3,2,10,14,24,309,,30,23,275,21,17,21,050,27,27,52,161,28*7A
$GPGSV,3,3,10,12,59,282,20,26,17,209,21*77
$GPGGA,184643.0,5024.460348,N,03039.823424,E,1,06,2.7,125.0,M,,,,*0A
$GPRMC,184643.0,A,5024.460348,N,03039.823424,E,2.1,90.0,200509,,,A*5A
$GPGSA,A,3,02,04,09,17,27,12,,,,,,,6.2,2.7,5.5*3C
$GPVTG,90.0,T,,M,2.1,N,3.8,K*51
$GPGSV,3,1,10,02,23,139,21,04,33,098,35,05,52,281,21,09,68,181,24*71
$GPGSV,3,2,10,14,24,309,,30,23,275,17,17,21,050,27,27,52,161,29*7E
$GPGSV,3,3,10,12,59,282,18,26,17,209,21*7C
$GPGGA,184644.0,5024.460375,N,03039.824682,E,1,06,3.0,125.5,M,,,,*09
$GPRMC,184644.0,A,5024.460375,N,03039.824682,E,2.3,87.1,200509,,,A*5F
$GPGSA,A,3,02,04,09,17,27,12,,,,,,,7.0,3.0,6.4*3B
$GPVTG,87.1,T,,M,2.3,N,4.3,K*58
$GPGSV,3,1,10,02,23,139,25,04,33,098,31,05,52,281,23,09,68,181,27*70
$GPGSV,3,2,10,14,24,309,,30,23,275,21,17,21,050,26,27,52,161,31*73
$GPGSV,3,3,10,12,59,282,18,26,17,209,20*7D
$GPGGA,184645.0,5024.460303,N,03039.826241,E,1,07,1.8,125.5,M,,,,*0B
$GPRMC,184645.0,A,5024.460303,N,03039.826241,E,2.7,93.8,200509,,,A*5E
$GPGSA,A,3,02,04,09,30,17,27,255,,,,,,3.9,1.8,3.5*0A
$GPVTG,93.8,T,,M,2.7,N,5.0,K*52
$GPGSV,3,1,10,02,23,139,22,04,33,098,30,05,52,281,25,09,68,181,30*76
$GPGSV,3,2,10,14,24,309,21,30,23,275,21,17,21,050,23,27,52,161,34*70
$GPGSV,3,3,10,12,59,282,18,26,17,209,20*7D
$GPGGA,184646.0,5024.460360,N,03039.827760,E,1,08,1.4,126.0,M,,,,*0F
$GPRMC,184646.0,A,5024.460360,N,03039.827760,E,2.6,95.2,200509,,,A*52
$GPGSA,A,3,02,04,09,17,27,26,255,255,,,,,2.6,1.4,2.2*3B
$GPVTG,95.2,T,,M,2.6,N,4.9,K*57
$GPGSV,3,1,10,02,23,139,23,04,33,098,29,05,52,281,28,09,68,181,31*73
$GPGSV,3,2,10,14,24,309,26,30,23,275,21,17,21,050,27,27,52,161,28*7E
$GPGSV,3,3,10,12,59,282,31,26,17,209,20*76
$GPGGA,184647.0,5024.460212,N,03039.829168,E,1,09,1.1,125.5,M,,,,*08
$GPRMC,184647.0,A,5024.460212,N,03039.829168,E,2.7,90.0,200509,,,A*51
$GPGSA,A,3,02,04,09,14,17,27,12,255,255,,,,2.3,1.1,2.0*3B
$GPVTG,90.0,T,,M,2.7,N,4.9,K*51
$GPGSV,3,1,10,02,23,139,22,04,33,098,25,05,52,281,25,09,68,181,33*71
$GPGSV,3,2,10,14,24,309,23,30,23,275,21,17,21,050,25,27,52,161,28*79
$GPGSV,3,3,10,12,59,282,26,26,17,209,20*70
$GPGGA,184648.0,5024.460174,N,03039.830576,E,1,09,1.2,125.5,M,,,,*04
$GPRMC,184648.0,A,5024.460174,N,03039.830576,E,2.4,84.3,200509,,,A*5B
$GPGSA,A,3,02,04,09,14,17,27,12,255,255,,,,2.4,1.2,2.1*3E
$GPVTG,84.3,T,,M,2.4,N,4.4,K*59
$GPGSV,3,1,10,02,23,139,22,04,33,098,31,05,52,281,24,09,68,181,28*7F
$GPGSV,3,2,10,14,24,309,20,30,23,275,21,17,21,050,28,27,52,161,30*7E
$GPGSV,3,3,10,12,59,282,25,26,17,209,20*73
$GPGGA,184649.0,5024.460122,N,03039.831954,E,1,09,1.7,126.0,M,,,,*08
$GPRMC,184649.0,A,5024.460122,N,03039.831954,E,2.1,93.3,200509,,,A*57
$GPGSA,A,3,02,04,09,14,17,27,12,255,255,,,,3.7,1.7,3.2*3B
$GPVTG,93.3,T,,M,2.1,N,3.9,K*50
$GPGSV,3,1,10,02,23,139,21,04,33,098,32,05,52,281,21,09,68,181,22*70
$GPGSV,3,2,10,14,24,309,20,30,23,275,21,17,21,050,29,27,52,161,25*7B
$GPGSV,3,3,10,12,59,282,22,26,17,209,20*74
$GPGGA,184650.0,5024.460122,N,03039.832960,E,1,09,1.4,125.5,M,,,,*01
$GPRMC,184650.0,A,5024.460122,N,03039.832960,E,1.9,90.0,200509,,,A*50
$GPGSA,A,3,02,04,09,17,27,12,255,255,255,,,,3.4,1.4,3.1*0F
$GPVTG,90.0,T,,M,1.9,N,3.6,K*54
$GPGSV,3,1,10,02,23,139,21,04,33,098,34,05,52,281,20,09,68,181,22*77
$GPGSV,3,2,10,14,24,309,21,30,23,275,21,17,21,050,30,27,52,161,23*74
$GPGSV,3,3,10,12,59,282,20,26,17,209,20*76
$GPGGA,184651.0,5024.460031,N,03039.833860,E,1,09,1.5,125.5,M,,,,*02
$GPRMC,184651.0,A,5024.460031,N,03039.833860,E,1.3,90.0,200509,,,A*58
$GPGSA,A,3,04,09,14,17,27,12,255,255,255,,,,3.6,1.5,3.2*08
$GPVTG,90.0,T,,M,1.3,N,2.5,K*5C
$GPGSV,3,1,10,02,24,139,21,04,33,098,33,05,52,281,20,09,68,181,21*74
$GPGSV,3,2,10,14,24,309,21,30,23,275,21,17,21,050,26,27,52,161,23*73
$GPGSV,3,3,10,12,59,282,20,26,17,209,20*76
$GPGGA,184652.0,5024.460041,N,03039.834609,E,1,08,1.6,125.5,M,,,,*02
$GPRMC,184652.0,A,5024.460041,N,03039.834609,E,1.5,91.1,200509,,,A*5C
$GPGSA,A,3,04,09,17,27,255,255,255,255,,,,,3.8,1.6,3.5*36
$GPVTG,91.1,T,,M,1.5,N,2.9,K*56
$GPGSV,3,1,10,02,24,139,21,04,33,098,34,05,52,281,20,09,68,181,24*76
$GPGSV,3,2,10,14,24,309,21,30,23,275,21,17,21,050,28,27,52,161,26*78
$GPGSV,3,3,10,12,59,282,20,26,17,209,20*76
$GPGGA,184653.0,5024.460028,N,03039.835530,E,1,07,1.6,125.5,M,,,,*0B
$GPRMC,184653.0,A,5024.460028,N,03039.835530,E,1.8,96.5,200509,,,A*54
$GPGSA,A,3,02,04,09,17,27,12,255,,,,,,3.9,1.6,3.5*04
$GPVTG,96.5,T,,M,1.8,N,3.4,K*54
$GPGSV,3,1,10,02,24,139,21,04,33,098,35,05,52,281,21,09,68,181,24*76
$GPGSV,3,2,10,14,24,309,21,30,23,275,21,17,21,050,30,27,52,161,27*70
$GPGSV,3,3,10,12,59,282,20,26,17,209,20*76
$GPGGA,184654.0,5024.460016,N,03039.836480,E,1,07,2.3,125.5,M,,,,*0E
$GPRMC,184654.0,A,5024.460016,N,03039.836480,E,2.2,97.8,200509,,,A*52
$GPGSA,A,3,04,09,17,27,12,255,255,,,,,,5.6,2.3,5.0*38
$GPVTG,97.8,T,,M,2.2,N,4.0,K*52
$GPGSV,3,1,10,02,24,139,21,04,33,098,34,05,52,281,21,09,68,181,21*72
$GPGSV,3,2,10,14,24,309,21,30,23,275,21,17,21,050,29,27,52,161,25*7A
$GPGSV,3,3,10,12,59,282,21,26,17,209,20*77
$GPGGA,184655.0,5024.459870,N,03039.837637,E,1,07,2.4,125.5,M,,,,*05
$GPRMC,184655.0,A,5024.459870,N,03039.837637,E,2.0,97.7,200509,,,A*53
$GPGSA,A,3,04,09,17,27,12,255,255,,,,,,6.1,2.4,5.5*3E
$GPVTG,97.7,T,,M,2.0,N,3.7,K*5F
$GPGSV,3,1,10,02,24,139,21,04,33,098,36,05,52,281,21,09,68,181,21*70
$GPGSV,3,2,10,14,24,309,21,30,23,275,21,17,21,050,31,27,52,161,25*73
$GPGSV,3,3,10,12,59,282,20,26,17,209,20*76
$GPGGA,184656.0,5024.459795,N,03039.838638,E,1,07,6.7,125.5,M,,,,*05
$GPRMC,184656.0,A,5024.459795,N,03039.838638,E,2.0,106.3,200509,,,A*69
$GPGSA,A,3,04,09,17,27,12,255,255,,,,,,18.2,6.7,16.9*3B
$GPVTG,106.3,T,,M,2.0,N,3.7,K*62
$GPGSV,3,1,10,02,24,139,21,04,33,098,31,05,52,281,21,09,68,181,24*72
$GPGSV,3,2,10,14,24,309,21,30,24,275,21,17,21,050,29,27,52,161,27*7F
$GPGSV,3,3,10,12,59,282,20,26,17,209,20*76
$GPGGA,184657.0,5024.459671,N,03039.839669,E,1,07,5.8,125.5,M,,,,*06
$GPRMC,184657.0,A,5024.459671,N,03039.839669,E,2.3,103.7,200509,,,A*64
$GPGSA,A,3,04,09,17,27,12,255,255,,,,,,15.6,5.8,14.5*30
$GPVTG,103.7,T,,M,2.3,N,4.2,K*62
$GPGSV,3,1,10,02,24,139,21,04,33,098,32,05,52,281,20,09,68,181,26*72
$GPGSV,3,2,10,14,24,309,21,30,24,275,21,17,21,050,30,27,52,161,27*77
$GPGSV,3,3,10,12,59,282,20,26,17,209,20*76
$GPGGA,184658.0,5024.459598,N,03039.840745,E,1,06,5.6,125.5,M,,,,*03
$GPRMC,184658.0,A,5024.459598,N,03039.840745,E,2.4,96.3,200509,,,A*50
$GPGSA,A,3,04,09,17,27,255,255,,,,,,,15.1,5.6,14.0*3F
$GPVTG,96.3,T,,M,2.4,N,4.5,K*5B
$GPGSV,3,1,10,02,24,139,21,04,33,098,33,05,52,281,20,09,68,181,26*73
$GPGSV,3,2,10,14,24,309,21,30,24,275,21,17,21,050,27,27,52,161,29*7F
$GPGSV,3,3,10,12,59,282,20,26,17,209,20*76
$GPGGA,184659.0,5024.459573,N,03039.841902,E,1,06,5.2,125.5,M,,,,*0F
$GPRMC,184659.0,A,5024.459573,N,03039.841902,E,2.4,97.1,200509,,,A*5B
$GPGSA,A,3,04,09,17,27,12,255,,,,,,,13.9,5.2,12.9*0B
$GPVTG,97.1,T,,M,2.4,N,4.4,K*59
$GPGSV,3,1,10,02,24,139,21,04,33,098,31,05,52,281,20,09,68,181,26*71
$GPGSV,3,2,10,14,24,309,21,30,24,275,17,17,21,050,25,27,52,161,29*78
$GPGSV,3,3,10,12,59,282,22,26,17,209,20*74
$GPGGA,184700.0,5024.459521,N,03039.843028,E,1,05,4.8,125.5,M,,,,*0E
$GPRMC,184700.0,A,5024.459521,N,03039.843028,E,2.3,98.2,200509,,,A*59
$GPGSA,A,3,04,09,17,27,12,,,,,,,,12.8,4.8,11.9*31
$GPVTG,98.2,T,,M,2.3,N,4.2,K*54
$GPGSV,3,1,10,02,24,139,19,04,33,098,33,05,52,281,21,09,68,181,25*7A
$GPGSV,3,2,10,14,24,309,21,30,24,275,17,17,21,050,27,27,52,161,27*74
$GPGSV,3,3,10,12,59,282,22,26,17,209,20*74
$GPGGA,184701.0,5024.459453,N,03039.844235,E,1,05,4.8,125.5,M,,,,*02
$GPRMC,184701.0,A,5024.459453,N,03039.844235,E,2.2,94.6,200509,,,A*5C
$GPGSA,A,3,04,09,17,27,12,,,,,,,,12.8,4.8,11.9*31
$GPVTG,94.6,T,,M,2.2,N,4.1,K*5E
$GPGSV,3,1,10,02,24,139,18,04,33,098,33,05,52,281,21,09,68,181,25*7B
$GPGSV,3,2,10,14,24,309,21,30,24,275,18,17,21,050,27,27,52,161,29*75
$GPGSV,3,3,10,12,59,282,20,26,17,209,20*76
$GPGGA,184702.0,5024.459395,N,03039.845417,E,1,07,2.0,125.5,M,,,,*07
$GPRMC,184702.0,A,5024.459395,N,03039.845417,E,2.1,94.8,200509,,,A*58
$GPGSA,A,3,02,04,09,30,17,27,12,,,,,,4.8,2.0,4.4*30
$GPVTG,94.8,T,,M,2.1,N,3.9,K*5C
$GPGSV,3,1,10,02,24,139,16,04,33,098,33,05,52,281,21,09,68,181,26*76
$GPGSV,3,2,10,14,24,309,21,30,24,275,18,17,21,050,29,27,52,161,29*7B
$GPGSV,3,3,10,12,59,282,20,26,17,209,21*77
$GPGGA,184703.0,5024.459194,N,03039.846553,E,1,07,2.1,126.0,M,,,,*00
$GPRMC,184703.0,A,5024.459194,N,03039.846553,E,2.2,100.7,200509,,,A*68
$GPGSA,A,3,02,04,09,17,27,12,255,,,,,,5.2,2.1,4.8*07
$GPVTG,100.7,T,,M,2.2,N,4.1,K*63
$GPGSV,3,1,10,02,24,139,16,04,33,098,33,05,52,281,24,09,68,181,27*72
$GPGSV,3,2,10,14,24,309,21,30,24,275,18,17,21,050,27,27,52,161,31*7C
$GPGSV,3,3,10,12,59,282,23,26,17,209,19*7F
$GPGGA,184704.0,5024.459065,N,03039.847861,E,1,07,2.2,126.0,M,,,,*06
$GPRMC,184704.0,A,5024.459065,N,03039.847861,E,2.6,94.5,200509,,,A*57
$GPGSA,A,3,04,09,17,27,12,255,255,,,,,,5.4,2.2,4.9*33
$GPVTG,94.5,T,,M,2.6,N,4.8,K*50
$GPGSV,3,1,10,02,24,139,16,04,33,098,28,05,52,281,29,09,68,181,34*77
$GPGSV,3,2,10,14,24,309,21,30,24,275,18,17,21,050,31,27,52,161,29*72
$GPGSV,3,3,10,12,59,282,29,26,17,209,19*75
$GPGGA,184705.0,5024.458952,N,03039.849460,E,1,08,1.6,126.0,M,,,,*00
$GPRMC,184705.0,A,5024.458952,N,03039.849460,E,2.6,99.8,200509,,,A*59
$GPGSA,A,3,04,09,17,27,12,26,255,255,,,,,3.4,1.6,2.9*30
$GPVTG,99.8,T,,M,2.6,N,4.8,K*50
$GPGSV,3,1,10,02,24,139,16,04,33,098,30,05,52,281,27,09,68,181,34*70
$GPGSV,3,2,10,14,24,309,23,30,24,275,22,17,21,050,25,27,52,161,29*7C
$GPGSV,3,3,10,12,59,282,28,26,17,209,19*74
$GPGGA,184706.0,5024.458721,N,03039.851256,E,1,09,1.3,126.5,M,,,,*02
$GPRMC,184706.0,A,5024.458721,N,03039.851256,E,2.4,98.6,200509,,,A*57
$GPGSA,A,3,04,09,14,30,17,27,12,255,255,,,,2.7,1.3,2.3*3F
$GPVTG,98.6,T,,M,2.4,N,4.4,K*51
$GPGSV,3,1,10,02,24,139,16,04,33,098,33,05,52,281,23,09,67,181,27*7A
$GPGSV,3,2,10,14,24,309,23,30,24,275,20,17,21,050,29,27,52,161,27*7C
$GPGSV,3,3,10,12,59,282,22,26,17,209,19*7E
$GPGGA,184707.0,5024.458610,N,03039.852453,E,1,09,1.4,126.5,M,,,,*07
$GPRMC,184707.0,A,5024.458610,N,03039.852453,E,2.1,92.4,200509,,,A*58
$GPGSA,A,3,04,09,30,17,27,12,255,255,255,,,,2.8,1.4,2.4*07
$GPVTG,92.4,T,,M,2.1,N,3.9,K*56
$GPGSV,3,1,10,02,24,139,16,04,33,098,34,05,52,281,23,09,67,181,24*7E
$GPGSV,3,2,10,14,24,309,21,30,24,275,20,17,21,050,28,27,52,161,25*7D
$GPGSV,3,3,10,12,59,282,20,26,17,209,19*7C
$GPGGA,184708.0,5024.458417,N,03039.853775,E,1,09,1.9,127.0,M,,,,*02
$GPRMC,184708.0,A,5024.458417,N,03039.853775,E,1.9,96.2,200509,,,A*5D
$GPGSA,A,3,04,09,14,17,27,12,255,255,255,,,,4.3,1.9,3.8*0C
$GPVTG,96.2,T,,M,1.9,N,3.5,K*53
$GPGSV,3,1,10,02,24,139,16,04,33,098,33,05,52,281,20,09,67,181,25*7B
$GPGSV,3,2,10,14,24,309,22,30,24,275,20,17,21,050,27,27,52,161,26*72
$GPGSV,3,3,10,12,59,282,21,26,17,209,19*7D
$GPGGA,184709.0,5024.458268,N,03039.854872,E,1,09,2.0,127.0,M,,,,*08
$GPRMC,184709.0,A,5024.458268,N,03039.854872,E,1.5,90.0,200509,,,A*55
$GPGSA,A,3,04,09,14,17,27,12,255,255,255,,,,4.5,2.0,4.1*0E
$GPVTG,90.0,T,,M,1.5,N,2.7,K*58
$GPGSV,3,1,10,02,24,139,16,04,33,098,30,05,52,281,20,09,67,181,25*78
$GPGSV,3,2,10,14,24,309,24,30,24,275,20,17,21,050,25,27,52,161,27*77
$GPGSV,3,3,10,12,59,282,21,26,17,209,19*7D
$GPGGA,184710.0,5024.458138,N,03039.856250,E,1,08,1.8,127.5,M,,,,*01
$GPRMC,184710.0,A,5024.458138,N,03039.856250,E,1.5,90.0,200509,,,A*53
$GPGSA,A,3,04,09,14,30,17,27,255,255,,,,,4.2,1.8,3.7*31
$GPVTG,90.0,T,,M,1.5,N,2.7,K*58
$GPGSV,3,1,10,02,24,139,16,04,33,097,33,05,52,281,21,09,67,181,26*76
$GPGSV,3,2,10,14,24,309,22,30,24,275,20,17,21,050,23,27,52,161,26*76
$GPGSV,3,3,10,12,59,282,21,26,17,209,19*7D
$GPGGA,184711.0,5024.458062,N,03039.857376,E,1,08,2.0,128.0,M,,,,*0B
$GPRMC,184711.0,A,5024.458062,N,03039.857376,E,1.6,88.9,200509,,,A*5B
$GPGSA,A,3,04,09,14,17,27,12,255,255,,,,,4.1,2.0,3.6*38
$GPVTG,88.9,T,,M,1.6,N,2.9,K*55
$GPGSV,3,1,10,02,24,139,16,04,33,097,34,05,52,281,23,09,67,181,25*70
$GPGSV,3,2,10,14,24,309,21,30,24,275,20,17,21,050,27,27,52,161,24*73
$GPGSV,3,3,10,12,59,282,21,26,17,209,19*7D
$GPGGA,184712.0,5024.457941,N,03039.858518,E,1,07,2.0,128.0,M,,,,*01
$GPRMC,184712.0,A,5024.457941,N,03039.858518,E,1.8,94.7,200509,,,A*53
$GPGSA,A,3,04,09,14,17,27,12,255,,,,,,4.4,2.0,3.9*00
$GPVTG,94.7,T,,M,1.8,N,3.4,K*54
$GPGSV,3,1,10,02,24,139,16,04,33,097,34,05,52,281,23,09,67,181,26*73
$GPGSV,3,2,10,14,24,309,21,30,24,275,21,17,21,050,29,27,52,161,27*7F
$GPGSV,3,3,10,12,59,282,21,26,17,209,19*7D
$GPGGA,184713.0,5024.457987,N,03039.859554,E,1,07,2.0,128.0,M,,,,*03
$GPRMC,184713.0,A,5024.457987,N,03039.859554,E,1.7,89.0,200509,,,A*55
$GPGSA,A,3,04,09,30,17,27,12,255,,,,,,4.3,2.0,3.7*0F
$GPVTG,89.0,T,,M,1.7,N,3.2,K*56
$GPGSV,3,1,10,02,24,139,16,04,33,097,34,05,52,281,21,09,67,181,26*71
$GPGSV,3,2,10,14,24,309,21,30,24,275,21,17,21,050,33,27,52,161,25*76
$GPGSV,3,3,10,12,59,282,21,26,17,209,19*7D
$GPGGA,184714.0,5024.458004,N,03039.860464,E,1,07,2.0,128.0,M,,,,*01
$GPRMC,184714.0,A,5024.458004,N,03039.860464,E,1.9,90.0,200509,,,A*51
$GPGSA,A,3,04,09,17,27,255,255,255,,,,,,4.4,2.0,3.9*06
$GPVTG,90.0,T,,M,1.9,N,3.5,K*57
$GPGSV,3,1,10,02,24,139,16,04,33,097,35,05,52,281,23,09,67,181,25*71
$GPGSV,3,2,10,14,24,309,23,30,24,275,21,17,21,050,30,27,52,161,25*77
$GPGSV,3,3,10,12,59,282,21,26,17,209,19*7D
$GPGGA,184715.0,5024.457899,N,03039.861470,E,1,07,2.1,128.0,M,,,,*06
$GPRMC,184715.0,A,5024.457899,N,03039.861470,E,1.4,91.2,200509,,,A*59
$GPGSA,A,3,04,09,14,17,27,12,255,,,,,,4.9,2.1,4.4*06
$GPVTG,91.2,T,,M,1.4,N,2.5,K*58
$GPGSV,3,1,10,02,24,139,16,04,33,097,32,05,52,281,22,09,67,181,24*76
$GPGSV,3,2,10,14,24,309,23,30,24,275,21,17,21,050,28,27,52,161,26*7D
$GPGSV,3,3,10,12,59,282,21,26,17,209,19*7D
$GPGGA,184716.0,5024.457916,N,03039.862159,E,1,07,2.7,128.0,M,,,,*08
$GPRMC,184716.0,A,5024.457916,N,03039.862159,E,1.6,94.3,200509,,,A*57
$GPGSA,A,3,04,09,17,27,12,255,255,,,,,,6.7,2.7,6.1*3C
$GPVTG,94.3,T,,M,1.6,N,2.9,K*52
$GPGSV,3,1,10,02,24,139,16,04,33,097,34,05,52,281,22,09,67,181,24*70
$GPGSV,3,2,10,14,24,309,23,30,24,275,22,17,21,050,28,27,52,161,28*70
$GPGSV,3,3,10,12,59,282,22,26,17,209,19*7E
$GPGGA,184717.0,5024.457753,N,03039.863044,E,1,07,1.9,127.5,M,,,,*0D
$GPRMC,184717.0,A,5024.457753,N,03039.863044,E,1.2,108.0,200509,,,A*66
$GPGSA,A,3,04,09,30,17,27,12,255,,,,,,4.5,1.9,4.1*02
$GPVTG,108.0,T,,M,1.2,N,2.3,K*6B
$GPGSV,3,1,10,02,,,16,04,,,33,05,,,21,09,,,25*73
$GPGSV,3,2,10,14,,,23,30,,,22,17,,,26,27,,,28*73
$GPGSV,3,3,10,12,,,24,26,,,19*71
$GPGGA,184718.0,5024.457660,N,03039.863944,E,1,07,2.2,127.5,M,,,,*02
$GPRMC,184718.0,A,5024.457660,N,03039.863944,E,1.9,103.2,200509,,,A*63
$GPGSA,A,3,04,09,17,27,12,255,255,,,,,,4.9,2.2,4.4*32
$GPVTG,103.2,T,,M,1.9,N,3.6,K*6D
$GPGSV,3,1,10,02,,,16,04,,,34,05,,,24,09,,,28*7C
$GPGSV,3,2,10,14,,,20,30,,,21,17,,,21,27,,,31*7C
$GPGSV,3,3,10,12,,,25,26,,,19*70
$GPGGA,184719.0,5024.457469,N,03039.865398,E,1,07,2.1,127.5,M,,,,*06
$GPRMC,184719.0,A,5024.457469,N,03039.865398,E,2.1,98.1,200509,,,A*5F
$GPGSA,A,3,04,09,14,30,17,27,12,,,,,,4.4,2.1,3.9*30
$GPVTG,98.1,T,,M,2.1,N,3.9,K*59
$GPGSV,3,1,10,02,24,139,16,04,33,097,35,05,52,281,22,09,67,181,27*72
$GPGSV,3,2,10,14,24,309,21,30,24,275,20,17,21,050,25,27,52,161,28*7D
$GPGSV,3,3,10,12,59,282,23,26,17,209,19*7F
$GPGGA,184720.0,5024.457393,N,03039.866720,E,1,07,2.1,127.5,M,,,,*0A
$GPRMC,184720.0,A,5024.457393,N,03039.866720,E,1.9,90.0,200509,,,A*51
$GPGSA,A,3,04,09,14,30,17,27,12,,,,,,4.5,2.1,4.0*3F
$GPVTG,90.0,T,,M,1.9,N,3.5,K*57
$GPGSV,3,1,10,02,24,139,16,04,33,097,35,05,52,281,22,09,67,181,24*71
$GPGSV,3,2,10,14,24,309,21,30,24,275,21,17,21,050,28,27,52,161,27*7E
$GPGSV,3,3,10,12,59,282,23,26,17,209,19*7F
$GPGGA,184721.0,5024.457431,N,03039.867726,E,1,07,2.1,127.5,M,,,,*03
$GPRMC,184721.0,A,5024.457431,N,03039.867726,E,1.6,82.7,200509,,,A*53
$GPGSA,A,3,04,09,30,17,27,12,255,,,,,,4.6,2.1,4.1*0A
$GPVTG,82.7,T,,M,1.6,N,3.0,K*59
$GPGSV,3,1,10,02,24,139,16,04,33,097,31,05,52,281,27,09,67,181,28*7C
$GPGSV,3,2,10,14,24,309,22,30,24,275,23,17,21,050,27,27,52,161,29*7E
$GPGSV,3,3,10,12,59,282,27,26,17,209,19*7B
$GPGGA,184722.0,5024.457491,N,03039.868983,E,1,07,1.8,128.0,M,,,,*04
$GPRMC,184722.0,A,5024.457491,N,03039.868983,E,2.3,86.3,200509,,,A*52
$GPGSA,A,3,04,09,14,30,17,27,12,,,,,,3.9,1.8,3.4*3D
$GPVTG,86.3,T,,M,2.3,N,4.2,K*5A
$GPGSV,3,1,10,02,24,139,16,04,33,097,35,05,52,281,28,09,67,181,32*7C
$GPGSV,3,2,10,14,24,309,27,30,24,275,24,17,21,050,23,27,52,161,29*78
$GPGSV,3,3,10,12,59,282,27,26,17,209,19*7B
$GPGGA,184723.0,5024.457257,N,03039.871181,E,1,07,1.9,128.0,M,,,,*0A
$GPRMC,184723.0,A,5024.457257,N,03039.871181,E,2.0,90.0,200509,,,A*5A
$GPGSA,A,3,04,09,14,30,17,27,12,,,,,,3.9,1.9,3.4*3C
$GPVTG,90.0,T,,M,2.0,N,3.7,K*5F
$GPGSV,3,1,10,02,24,139,,04,33,097,34,05,52,281,29,09,67,181,33*7A
$GPGSV,3,2,10,14,24,309,27,30,24,275,26,17,21,050,25,27,52,161,30*74
$GPGSV,3,3,10,12,59,282,31,26,17,209,19*7C
$GPGGA,184724.0,5024.457051,N,03039.872926,E,1,07,1.9,129.5,M,,,,*0B
$GPRMC,184724.0,A,5024.457051,N,03039.872926,E,1.9,101.0,200509,,,A*6C
$GPGSA,A,3,04,09,14,30,17,27,12,,,,,,3.8,1.9,3.3*3A
$GPVTG,101.0,T,,M,1.9,N,3.5,K*6E
$GPGSV,3,1,10,02,24,139,,04,33,097,30,05,52,281,28,09,67,181,33*7F
$GPGSV,3,2,10,14,24,309,24,30,24,275,24,17,21,050,28,27,52,161,31*79
$GPGSV,3,3,10,12,59,282,29,26,17,209,19*75
$GPGGA,184725.0,5024.456802,N,03039.874068,E,1,07,1.8,129.5,M,,,,*01
$GPRMC,184725.0,A,5024.456802,N,03039.874068,E,1.7,107.5,200509,,,A*6A
$GPGSA,A,3,04,09,14,30,17,27,12,,,,,,3.6,1.8,3.1*37
$GPVTG,107.5,T,,M,1.7,N,3.1,K*67
$GPGSV,3,1,10,02,24,139,,04,33,097,27,05,52,281,23,09,67,181,30*71
$GPGSV,3,2,10,14,24,309,22,30,24,275,24,17,21,050,29,27,52,161,29*77
$GPGSV,3,3,10,12,59,282,25,26,17,209,*71
$GPGGA,184726.0,5024.456707,N,03039.874973,E,1,07,1.6,129.0,M,,,,*00
$GPRMC,184726.0,A,5024.456707,N,03039.874973,E,1.4,104.9,200509,,,A*6C
$GPGSA,A,3,04,09,14,30,17,27,12,,,,,,3.3,1.6,2.9*35
$GPVTG,104.9,T,,M,1.4,N,2.6,K*6D
$GPGSV,3,1,10,02,24,139,,04,33,097,27,05,52,281,27,09,67,181,30*75
$GPGSV,3,2,10,14,24,309,22,30,24,275,21,17,21,050,24,27,52,161,30*77
$GPGSV,3,3,10,12,59,282,27,26,17,209,*73
$GPGGA,184727.0,5024.456601,N,03039.875873,E,1,07,1.7,129.0,M,,,,*07
$GPRMC,184727.0,A,5024.456601,N,03039.875873,E,1.8,106.3,200509,,,A*6E
$GPGSA,A,3,04,09,14,30,17,27,12,,,,,,3.5,1.7,3.0*3A
$GPVTG,106.3,T,,M,1.8,N,3.3,K*6D
$GPGSV,3,1,10,02,24,139,,04,33,097,28,05,52,281,27,09,67,181,30*7A
$GPGSV,3,2,10,14,24,309,24,30,24,275,21,17,21,050,24,27,52,161,27*77
$GPGSV,3,3,10,12,59,282,29,26,17,209,*7D
$GPGGA,184728.0,5024.456448,N,03039.876884,E,1,07,1.8,129.0,M,,,,*03
$GPRMC,184728.0,A,5024.456448,N,03039.876884,E,1.7,104.5,200509,,,A*6E
$GPGSA,A,3,04,09,14,30,17,27,12,,,,,,3.6,1.8,3.1*37
$GPVTG,104.5,T,,M,1.7,N,3.1,K*64
$GPGSV,3,1,10,02,24,139,,04,33,097,31,05,52,281,24,09,67,181,28*78
$GPGSV,3,2,10,14,24,309,23,30,24,275,24,17,21,050,27,27,52,161,26*77
$GPGSV,3,3,10,12,59,282,27,26,17,209,*73
$GPGGA,184729.0,5024.456435,N,03039.877704,E,1,07,1.8,128.5,M,,,,*0A
$GPRMC,184729.0,A,5024.456435,N,03039.877704,E,1.6,102.8,200509,,,A*69
$GPGSA,A,3,04,09,14,30,17,27,12,,,,,,3.6,1.8,3.1*37
$GPVTG,102.8,T,,M,1.6,N,3.0,K*6F
$GPGSV,3,1,10,02,24,139,,04,33,097,31,05,52,281,26,09,67,181,28*7A
$GPGSV,3,2,10,14,24,309,23,30,24,275,23,17,21,050,27,27,52,161,25*73
$GPGSV,3,3,10,12,59,282,27,26,17,209,*73
$GPGGA,184730.0,5024.456352,N,03039.878700,E,1,07,1.8,128.5,M,,,,*0F
$GPRMC,184730.0,A,5024.456352,N,03039.878700,E,1.8,98.7,200509,,,A*5F
$GPGSA,A,3,04,09,14,30,17,27,12,,,,,,3.6,1.8,3.1*37
$GPVTG,98.7,T,,M,1.8,N,3.3,K*5F
$GPGSV,3,1,10,02,24,139,,04,33,097,28,05,52,281,24,09,67,181,28*70
$GPGSV,3,2,10,14,24,309,24,30,24,275,22,17,21,050,20,27,52,161,25*72
$GPGSV,3,3,10,12,59,282,26,26,17,209,*72
$GPGGA,184731.0,5024.456189,N,03039.879836,E,1,07,1.9,128.5,M,,,,*00
$GPRMC,184731.0,A,5024.456189,N,03039.879836,E,1.7,109.1,200509,,,A*61
$GPGSA,A,3,04,09,14,30,17,27,12,,,,,,3.4,1.9,2.8*3C
$GPVTG,109.1,T,,M,1.7,N,3.2,K*6E
$GPGSV,3,1,10,02,24,139,,04,33,097,26,05,52,281,25,09,67,181,28*7F
$GPGSV,3,2,10,14,24,309,21,30,24,275,21,17,21,050,22,27,52,161,26*75
$GPGSV,3,3,10,12,59,282,26,26,17,209,*72
$GPGGA,184732.0,5024.456025,N,03039.880762,E,1,07,1.8,128.5,M,,,,*0D