$GPRMC,,,,,,,,,,,,,,,,,,,,,,,,,184538.0,A,5024.466383,N,03039.748002,E,2.1,75.4,200509,,,A*59
$GPVTG,82.1,T,,M,2.2,N,4.0,K*5F
$GPGSV,3,1,10,02,23,140,21,04,33,098,36,05,51,281,25,09,68,182,18*77
$GPGSV,3,2,10,14,24,310,21,30,23,275,21,17,21,050,30,27,52,161,16*7A
$GPGSV,3,3,10,12,58,281,20,26,18,209,18*70
$GPGGA,184538.0,5024.466383,N,03039.748002,E,1,09,1.3,140.0,M,,,,*0D
$GPRMC,184538.0,A,5024.466383,N,03039.748002,E,2.1,75.4,200509,,,A*59
$GPGSA,A,3,04,09,30,17,12,255,255,255,255,,,,3.4,1.3,3.2*3D
$GPVTG,75.4,T,,M,2.1,N,3.9,K*5F
$GPGSV,3,1,10,02,23,140,21,04,33,098,34,05,51,281,26,09,68,182,18*76
$GPGSV,3,2,10,14,24,310,22,30,23,275,21,17,21,050,30,27,52,161,21*7D
$GPGSV,3,3,10,12,58,281,22,26,18,209,16*7C
$GPGGA,184539.0,5024.466853,N,03039.749084,E,1,09,1.0,141.0,M,,,,*07
$GPRMC,184539.0,A,5024.466853,N,03039.749084,E,1.8,70.3,200509,,,A*59
$GPGSA,A,3,04,14,30,17,27,12,26,255,255,,,,3.0,1.0,2.8*3C
$GPVTG,70.3,T,,M,1.8,N,3.3,K*5D
$GPGSV,3,1,10,02,23,140,29,04,33,098,32,05,51,281,24,09,68,182,18*7A
$GPGSV,3,2,10,14,24,310,22,30,23,275,21,17,21,050,36,27,52,161,21*7B
$GPGSV,3,3,10,12,58,281,26,26,18,209,18*76
$GPGGA,184540.0,5024.467258,N,03039.750195,E,1,09,1.0,142.0,M,,,,*03
$GPRMC,184540.0,A,5024.467258,N,03039.750195,E,1.8,74.2,200509,,,A*5B
$GPGSA,A,3,02,04,14,30,17,12,26,255,255,,,,2.7,1.0,2.6*33
$GPVTG,74.2,T,,M,1.8,N,3.4,K*5F
$GPGSV,3,1,10,02,23,139,27,04,33,098,27,05,51,281,27,09,68,182,18*7D
$GPGSV,3,2,10,14,24,310,20,30,23,275,20,17,21,050,37,27,52,161,21*79
$GPGSV,3,3,10,12,58,281,27,26,18,209,17*78
$GPGGA,184541.0,5024.467275,N,03039.751397,E,1,09,0.9,142.5,M,,,,*01
$GPRMC,184541.0,A,5024.467275,N,03039.751397,E,2.0,71.6,200509,,,A*5E
$GPGSA,A,3,02,04,14,30,17,12,26,255,255,,,,2.7,0.9,2.5*38
$GPVTG,71.6,T,,M,2.0,N,3.6,K*57
$GPGSV,3,1,10,02,23,139,27,04,33,098,22,05,51,281,26,09,68,182,21*73
$GPGSV,3,2,10,14,24,310,23,30,23,275,22,17,21,050,38,27,52,161,21*77
$GPGSV,3,3,10,12,58,281,25,26,18,209,17*7A
$GPGGA,184542.0,5024.467077,N,03039.752111,E,1,09,1.0,141.0,M,,,,*03
$GPRMC,184542.0,A,5024.467077,N,03039.752111,E,1.7,67.5,200509,,,A*52
$GPGSA,A,3,02,04,09,14,30,17,12,255,255,,,,2.4,1.0,2.2*39
$GPVTG,67.5,T,,M,1.7,N,3.2,K*53
$GPGSV,3,1,10,02,23,139,25,04,33,098,25,05,51,281,27,09,68,182,23*75
$GPGSV,3,2,10,14,24,310,21,30,23,275,21,17,21,050,37,27,52,161,21*79
$GPGSV,3,3,10,12,58,281,27,26,18,209,17*78
$GPGGA,184543.0,5024.467145,N,03039.752830,E,1,09,1.0,140.5,M,,,,*0C
$GPRMC,184543.0,A,5024.467145,N,03039.752830,E,1.9,68.2,200509,,,A*5F
$GPGSA,A,3,02,04,09,14,30,17,12,255,255,,,,2.5,1.0,2.3*39
$GPVTG,68.2,T,,M,1.9,N,3.5,K*52
$GPGSV,3,1,10,02,23,139,22,04,33,098,32,05,51,281,24,09,68,182,24*70
$GPGSV,3,2,10,14,24,310,21,30,23,275,23,17,21,050,35,27,52,161,21*79
$GPGSV,3,3,10,12,58,281,25,26,18,209,17*7A
$GPGGA,184544.0,5024.467165,N,03039.753756,E,1,09,1.3,140.0,M,,,,*01
$GPRMC,184544.0,A,5024.467165,N,03039.753756,E,1.9,78.3,200509,,,A*54
$GPGSA,A,3,02,04,09,14,30,17,12,255,255,,,,3.1,1.3,2.8*34
$GPVTG,78.3,T,,M,1.9,N,3.5,K*52
$GPGSV,3,1,10,02,23,139,27,04,33,098,29,05,51,281,20,09,68,182,26*79
$GPGSV,3,2,10,14,24,310,21,30,23,275,21,17,21,050,36,27,52,161,21*78
$GPGSV,3,3,10,12,58,281,21,26,18,209,17*7E
$GPGGA,184545.0,5024.466868,N,03039.754430,E,1,09,1.3,138.5,M,,,,*0B
$GPRMC,184545.0,A,5024.466868,N,03039.754430,E,1.5,74.8,200509,,,A*5F
$GPGSA,A,3,02,04,09,30,17,12,255,255,255,,,,3.3,1.3,3.0*08
$GPVTG,74.8,T,,M,1.5,N,2.7,K*5A
$GPGSV,3,1,10,02,23,139,25,04,33,098,29,05,51,281,21,09,68,182,26*7A
$GPGSV,3,2,10,14,24,310,21,30,23,275,20,17,21,050,33,27,52,161,21*7C
$GPGSV,3,3,10,12,58,281,23,26,18,209,17*7C
$GPGGA,184546.0,5024.466873,N,03039.755365,E,1,08,1.3,137.5,M,,,,*0A
$GPRMC,184546.0,A,5024.466873,N,03039.755365,E,2.0,77.0,200509,,,A*5D
$GPGSA,A,3,02,04,09,30,17,12,255,255,,,,,3.0,1.3,2.8*30
$GPVTG,77.0,T,,M,2.0,N,3.7,K*56
$GPGSV,3,1,10,02,23,139,24,04,33,098,29,05,51,281,21,09,68,182,22*7F
$GPGSV,3,2,10,14,24,310,20,30,23,275,20,17,21,050,33,27,52,161,21*7D
$GPGSV,3,3,10,12,58,281,23,26,18,209,17*7C
$GPGGA,184547.0,5024.466946,N,03039.756391,E,1,08,1.2,137.0,M,,,,*00
$GPRMC,184547.0,A,5024.466946,N,03039.756391,E,2.2,79.0,200509,,,A*5F
$GPGSA,A,3,02,04,09,14,17,255,255,255,,,,,3.3,1.2,3.1*0D
$GPVTG,79.0,T,,M,2.2,N,4.0,K*5A
$GPGSV,3,1,10,02,23,139,25,04,33,098,31,05,51,281,21,09,68,182,23*76
$GPGSV,3,2,10,14,24,310,20,30,23,275,20,17,21,050,30,27,52,161,21*7E
$GPGSV,3,3,10,12,58,281,20,26,18,209,17*7F
$GPGGA,184548.0,5024.466941,N,03039.757412,E,1,07,1.1,137.0,M,,,,*09
$GPRMC,184548.0,A,5024.466941,N,03039.757412,E,2.3,76.7,200509,,,A*53
$GPGSA,A,3,02,04,09,17,12,255,255,,,,,,3.0,1.1,2.7*3E
$GPVTG,76.7,T,,M,2.3,N,4.3,K*50
$GPGSV,3,1,10,02,23,139,26,04,33,098,30,05,51,281,21,09,68,182,22*75
$GPGSV,3,2,10,14,24,310,22,30,23,275,20,17,21,050,32,27,52,161,21*7E
$GPGSV,3,3,10,12,58,281,20,26,18,209,17*7F
$GPGGA,184549.0,5024.467032,N,03039.758564,E,1,07,1.5,137.0,M,,,,*0F
$GPRMC,184549.0,A,5024.467032,N,03039.758564,E,2.4,78.0,200509,,,A*5F
$GPGSA,A,3,02,04,09,14,17,255,255,,,,,,3.6,1.5,3.3*3F
$GPVTG,78.0,T,,M,2.4,N,4.5,K*58
$GPGSV,3,1,10,02,23,139,27,04,33,098,31,05,51,281,22,09,68,182,23*77
$GPGSV,3,2,10,14,24,310,21,30,23,275,20,17,21,050,33,27,52,161,21*7C
$GPGSV,3,3,10,12,59,281,23,26,18,209,17*7D
$GPGGA,184550.0,5024.467059,N,03039.759851,E,1,07,1.5,136.5,M,,,,*04
$GPRMC,184550.0,A,5024.467059,N,03039.759851,E,2.7,74.7,200509,,,A*58
$GPGSA,A,3,02,04,09,14,17,12,255,,,,,,3.7,1.5,3.3*0F
$GPVTG,74.7,T,,M,2.7,N,5.0,K*54
$GPGSV,3,1,10,02,23,139,28,04,33,098,32,05,51,281,25,09,68,182,28*77
$GPGSV,3,2,10,14,24,310,23,30,23,275,20,17,21,050,32,27,52,161,21*7F
$GPGSV,3,3,10,12,59,281,22,26,18,209,17*7C
$GPGGA,184551.0,5024.466976,N,03039.761083,E,1,07,1.5,136.0,M,,,,*09
$GPRMC,184551.0,A,5024.466976,N,03039.761083,E,2.6,84.8,200509,,,A*51
$GPGSA,A,3,02,04,09,14,17,12,255,,,,,,3.6,1.5,3.2*0F
$GPVTG,84.8,T,,M,2.6,N,4.9,K*5D
$GPGSV,3,1,10,02,23,139,31,04,33,098,31,05,51,281,24,09,68,182,31*75
$GPGSV,3,2,10,14,24,310,22,30,23,275,20,17,21,050,31,27,52,161,21*7D
$GPGSV,3,3,10,12,59,281,25,26,18,209,17*7B
$GPGGA,184552.0,5024.466524,N,03039.762376,E,1,07,1.4,134.0,M,,,,*08
$GPRMC,184552.0,A,5024.466524,N,03039.762376,E,2.7,95.6,200509,,,A*5C
$GPGSA,A,3,02,04,09,14,17,12,255,,,,,,3.3,1.4,2.9*01
$GPVTG,95.6,T,,M,2.7,N,5.0,K*5A
$GPGSV,3,1,10,02,23,139,35,04,33,098,34,05,51,281,22,09,68,182,30*73
$GPGSV,3,2,10,14,24,310,22,30,23,275,20,17,21,050,28,27,52,161,21*75
$GPGSV,3,3,10,12,59,281,24,26,18,209,17*7A
$GPGGA,184553.0,5024.465686,N,03039.763412,E,1,06,1.4,132.0,M,,,,*02
$GPRMC,184553.0,A,5024.465686,N,03039.763412,E,2.7,106.2,200509,,,A*6E
$GPGSA,A,3,02,04,09,17,12,255,,,,,,,3.1,1.4,2.7*08
$GPVTG,106.2,T,,M,2.7,N,4.9,K*6D
$GPGSV,3,1,10,02,23,139,34,04,33,098,35,05,51,281,23,09,68,182,31*73
$GPGSV,3,2,10,14,24,310,22,30,23,275,20,17,21,050,28,27,52,161,35*70
$GPGSV,3,3,10,12,59,281,25,26,18,209,17*7B
$GPGGA,184554.0,5024.464864,N,03039.764488,E,1,07,1.6,128.5,M,,,,*0F
$GPRMC,184554.0,A,5024.464864,N,03039.764488,E,2.9,113.9,200509,,,A*6F
$GPGSA,A,3,02,04,09,17,27,12,255,,,,,,3.1,1.6,2.7*0F
$GPVTG,113.9,T,,M,2.9,N,5.3,K*67
$GPGSV,3,1,10,02,23,139,30,04,33,098,33,05,51,281,24,09,68,182,30*77
$GPGSV,3,2,10,14,24,310,22,30,23,275,20,17,21,050,33,27,52,161,33*7C
$GPGSV,3,3,10,12,59,281,26,26,17,209,17*77
$GPGGA,184555.0,5024.464628,N,03039.765972,E,1,07,1.5,128.0,M,,,,*07
$GPRMC,184555.0,A,5024.464628,N,03039.765972,E,3.1,100.0,200509,,,A*63
$GPGSA,A,3,02,04,09,14,17,27,12,,,,,,3.0,1.5,2.6*3B
$GPVTG,100.0,T,,M,3.1,N,5.7,K*61
$GPGSV,3,1,10,02,23,139,30,04,33,098,33,05,51,281,26,09,68,182,29*7D
$GPGSV,3,2,10,14,24,310,27,30,23,275,20,17,21,050,29,27,52,161,31*70
$GPGSV,3,3,10,12,59,281,26,26,17,209,17*77
$GPGGA,184556.0,5024.464374,N,03039.767400,E,1,07,1.4,127.0,M,,,,*0C
$GPRMC,184556.0,A,5024.464374,N,03039.767400,E,2.6,71.0,200509,,,A*57
$GPGSA,A,3,02,04,09,14,17,27,12,,,,,,2.9,1.4,2.5*31
$GPVTG,71.0,T,,M,2.6,N,4.9,K*5F
$GPGSV,3,1,10,02,23,139,30,04,33,098,31,05,51,281,28,09,68,182,31*78
$GPGSV,3,2,10,14,24,310,28,30,23,275,20,17,21,050,27,27,52,161,33*73
$GPGSV,3,3,10,12,59,281,29,26,17,209,17*78
$GPGGA,184557.0,5024.464550,N,03039.768748,E,1,07,1.4,126.0,M,,,,*0C
$GPRMC,184557.0,A,5024.464550,N,03039.768748,E,2.5,64.3,200509,,,A*52
$GPGSA,A,3,02,04,09,14,17,27,12,,,,,,2.8,1.4,2.4*31
$GPVTG,64.3,T,,M,2.5,N,4.7,K*55
$GPGSV,3,1,10,02,23,139,33,04,33,098,32,05,51,281,30,09,68,182,33*73
$GPGSV,3,2,10,14,24,310,26,30,23,275,20,17,21,050,25,27,52,161,33*7F
$GPGSV,3,3,10,12,59,281,27,26,17,209,17*76
$GPGGA,184558.0,5024.464535,N,03039.769789,E,1,07,1.4,125.0,M,,,,*0F
$GPRMC,184558.0,A,5024.464535,N,03039.769789,E,2.4,64.7,200509,,,A*57
$GPGSA,A,3,02,04,09,14,17,27,12,,,,,,2.7,1.4,2.3*39
$GPVTG,64.7,T,,M,2.4,N,4.5,K*52
$GPGSV,3,1,10,02,23,139,26,04,33,098,26,05,51,281,26,09,68,182,25*72
$GPGSV,3,2,10,14,24,310,20,30,23,275,20,17,21,050,25,27,52,161,28*73
$GPGSV,3,3,10,12,59,281,24,26,17,209,17*75
$GPGGA,184559.0,5024.464733,N,03039.770784,E,1,07,1.4,124.5,M,,,,*0B
$GPRMC,184559.0,A,5024.464733,N,03039.770784,E,2.5,67.9,200509,,,A*5B
$GPGSA,A,3,02,04,09,14,17,27,12,,,,,,2.9,1.4,2.5*31
$GPVTG,67.9,T,,M,2.5,N,4.7,K*5C
$GPGSV,3,1,10,02,23,139,28,04,33,098,26,05,51,281,26,09,68,182,35*7D
$GPGSV,3,2,10,14,24,310,23,30,23,275,20,17,21,050,28,27,52,161,33*77
$GPGSV,3,3,10,12,59,281,29,26,17,209,17*78
$GPGGA,184600.0,5024.464789,N,03039.772032,E,1,07,1.5,123.5,M,,,,*0B
$GPRMC,184600.0,A,5024.464789,N,03039.772032,E,2.8,79.6,200509,,,A*50
$GPGSA,A,3,02,04,09,14,17,27,12,,,,,,2.9,1.5,2.5*30
$GPVTG,79.6,T,,M,2.8,N,5.2,K*55
$GPGSV,3,1,10,02,23,139,33,04,33,098,28,05,51,281,20,09,68,182,27*7C
$GPGSV,3,2,10,14,24,310,21,30,23,275,20,17,21,050,25,27,52,161,27*7D
$GPGSV,3,3,10,12,59,281,23,26,17,209,17*72
$GPGGA,184601.0,5024.464660,N,03039.773088,E,1,07,1.4,123.0,M,,,,*08
$GPRMC,184601.0,A,5024.464660,N,03039.773088,E,2.3,82.7,200509,,,A*59
$GPGSA,A,3,02,04,09,14,17,27,12,,,,,,2.7,1.4,2.3*39
$GPVTG,82.7,T,,M,2.3,N,4.3,K*5B
$GPGSV,3,1,10,02,23,139,34,04,33,098,32,05,51,281,20,09,68,182,26*71
$GPGSV,3,2,10,14,24,310,21,30,23,275,20,17,21,050,27,27,52,161,28*70
$GPGSV,3,3,10,12,59,281,23,26,17,209,*74
$GPGGA,184602.0,5024.464479,N,03039.774154,E,1,07,1.4,122.0,M,,,,*07
$GPRMC,184602.0,A,5024.464479,N,03039.774154,E,2.4,89.3,200509,,,A*5F
$GPGSA,A,3,02,04,09,17,27,255,255,,,,,,2.7,1.4,2.3*3F
$GPVTG,89.3,T,,M,2.4,N,4.5,K*55
$GPGSV,3,1,10,02,23,139,35,04,33,098,29,05,51,281,20,09,68,182,26*7A
$GPGSV,3,2,10,14,24,310,20,30,23,275,20,17,21,050,25,27,52,161,30*7A
$GPGSV,3,3,10,12,59,281,23,26,17,209,*74
$GPGGA,184603.0,5024.464183,N,03039.775351,E,1,07,1.5,121.5,M,,,,*07
$GPRMC,184603.0,A,5024.464183,N,03039.775351,E,2.7,91.3,200509,,,A*52
$GPGSA,A,3,02,04,09,14,17,27,255,,,,,,2.7,1.5,2.3*09
$GPVTG,91.3,T,,M,2.7,N,5.0,K*5B
$GPGSV,3,1,10,02,23,139,35,04,33,098,30,05,51,281,20,09,68,182,27*73
$GPGSV,3,2,10,14,24,310,24,30,23,275,20,17,21,050,21,27,52,161,29*72
$GPGSV,3,3,10,12,59,281,20,26,17,209,*77
$GPGGA,184604.0,5024.463863,N,03039.776467,E,1,07,1.5,120.0,M,,,,*05
$GPRMC,184604.0,A,5024.463863,N,03039.776467,E,2.7,90.0,200509,,,A*56
$GPGSA,A,3,02,04,09,14,17,27,12,,,,,,2.6,1.5,2.1*3B
$GPVTG,90.0,T,,M,2.7,N,4.9,K*51
$GPGSV,3,1,10,02,23,139,33,04,33,098,30,05,51,281,21,09,68,182,26*75
$GPGSV,3,2,10,14,24,310,22,30,23,275,20,17,21,050,21,27,52,161,30*7C
$GPGSV,3,3,10,12,59,281,23,26,17,209,*74
$GPGGA,184605.0,5024.463813,N,03039.777664,E,1,07,1.5,119.5,M,,,,*0C
$GPRMC,184605.0,A,5024.463813,N,03039.777664,E,2.6,86.8,200509,,,A*5E
$GPGSA,A,3,02,04,09,14,17,27,12,,,,,,2.6,1.5,2.1*3B